관광지명(소재지역),위도,경도,주소
가라산,34.75457595,128.623538,경남 거제시 남부면 다대리
가조도,34.96026876,128.5216959,경남 거제시 사등면 창호리
거제관광모노레일,34.87715745,128.6231563,경남 거제시 고현동 362
거제도포로수용소유적공원,34.87635187,128.6254371,경남 거제시 고현동 362
거제도해금강,34.73332844,128.683703,경남 거제시 남부면 갈곶리 산 1
거제도해수보양온천,34.89162855,128.6347042,경남 거제시 양정동 976-14
거제맹종죽테마공원,34.96767786,128.6505267,경남 거제시 하청면 실전리 880-1
거제민속박물관,34.94995023,128.6772211,경남 거제시 연초면 명동리 390
거제박물관,34.89402978,128.6862027,경남 거제시 옥포동 1565
거제식물원,34.85681404,128.5780919,경남 거제시 거제면 서정리 978
거제씨월드,34.8358811,128.7014614,경남 거제시 일운면 소동리 478-1
거제알로에테마파크,34.83569071,128.5602688,경남 거제시 거제면 내간리 산 121-3
거제어촌민속전시관,34.83360524,128.7017949,경남 거제시 일운면 지세포리 929-88
거제우제봉전망대,34.73050231,128.675054,경남 거제시 남부면 갈곶리 산 2-16
거제유호리전망대,35.01502688,128.7174951,경남 거제시 장목면 유호리 산 85-2
거제자연예술랜드,34.81589341,128.6237305,경남 거제시 동부면 구천리 428
거제자연휴양림,34.78569962,128.6259438,경남 거제시 동부면 구천리 산 103
거제칠천도크루즈유람선,34.9806753,128.6467141,경남 거제시 하청면 어온리 587
거제향교,34.85261956,128.5898459,경남 거제시 거제면 서정리 626
거제현관아,34.85114148,128.5912213,경남 거제시 거제면 동상리 415-2
고현성,34.88071134,128.6198335,경남 거제시 고현동 717
공곶이,34.79454392,128.7136259,경남 거제시 일운면 와현리 87
구영해수욕장,35.0313536,128.6910757,경남 거제시 장목면 구영리
구조라성,34.80221256,128.6950524,경남 거제시 일운면 구조라리 산 55
구조라수변공원,34.80810372,128.6983813,경남 거제시 일운면 구조라리 33-1
구조라항,34.80503403,128.6979905,경남 거제시 일운면 구조라리
구조라해수욕장,34.80696534,128.69289,경남 거제시 일운면 구조라리 423-1
궁농항,35.00122789,128.702854,경남 거제시 장목면 송진포리 121-7
근포땅굴,34.72292896,128.5910853,경남 거제시 남부면 저구리 423
김영삼전대통령생가,34.93158581,128.7151977,경남 거제시 장목면 외포리 1383-3
내도(거제),34.78544921,128.7140713,경남 거제시 일운면 와현리 산 107
노을이물드는언덕,34.95471898,128.5192243,경남 거제시 사등면 창호리 1475
노자산,34.78452259,128.616197,경남 거제시 동부면 구천리 산 103
농소몽돌해변,35.00458049,128.7010571,경남 거제시 장목면 송진포리 50-5
능포수변공원,34.88674704,128.7347173,경남 거제시 능포동 564-25
능포항,34.88500043,128.7376173,경남 거제시 능포동
대금산(거제),34.95159132,128.6999778,경남 거제시 연초면 명동리 산 21
대포항/대포근포항,34.71507762,128.5860471,경남 거제시 남부면 저구리 637-3
덕원해수욕장,34.77889966,128.5755578,경남 거제시 동부면 가배리
덕포해수욕장,34.91078957,128.7105156,경남 거제시 덕포동 364-4
도장포유람선,34.7420282,128.6626736,경남 거제시 남부면 갈곶리 292-6
독봉산웰빙공원,34.8773094,128.6342817,경남 거제시 상동동 369
동백섬지심도터미널,34.86729856,128.7275826,경남 거제시 장승포동 703-2
동부저수지,34.81250743,128.6239219,경남 거제시 동부면 구천리 395
두모몽돌해변,34.97998211,128.6949811,경남 거제시 장목면 관포리
망치몽돌해수욕장,34.81246048,128.6677636,경남 거제시 일운면 망치리
매미성,34.96830597,128.7051175,경남 거제시 장목면 대금리 1
명사해수욕장,34.72642651,128.6036912,경남 거제시 남부면 저구리 265-8
물안해수욕장,35.01081795,128.652471,경남 거제시 하청면 어온리 14-7
바람의언덕,34.74462102,128.6631492,경남 거제시 남부면 갈곶리 산 14-47
반곡서원(거제),34.85223404,128.5958824,경남 거제시 거제면 동상리 364
북병산,34.82244982,128.6565812,경남 거제시 일운면 망치리 산 76
사곡해수욕장,34.89880787,128.5721518,경남 거제시 사등면 사곡리 757-1
산달도,34.81255111,128.5366037,경남 거제시 거제면 법동리
산방산(거제),34.86155288,128.5392227,경남 거제시 둔덕면 상둔리 산 173
산방산비원,34.86036916,128.5266676,경남 거제시 둔덕면 산방리 197
수달생태공원,34.82073021,128.6359347,경남 거제시 동부면 구천리 195-1
수협효시공원,34.92951709,128.5251418,경남 거제시 사등면 창호리 2080
숲소리공원,34.85903171,128.6042231,경남 거제시 거제면 서상리 산 13
시방선착장,34.96489705,128.7091194,경남 거제시 장목면 시방리 731-23
신선대전망대,34.73781541,128.6647968,경남 거제시 남부면 갈곶리 산 21-21
앵산,34.94058906,128.6139476,경남 거제시 하청면 덕곡리 산 71
양지암조각공원,34.88042536,128.7381422,경남 거제시 능포동 427-2
여차해변(여차몽돌해수욕장),34.72208999,128.6291858,경남 거제시 남부면 다포리
여차홍포전망대,34.7037792,128.6100706,경남 거제시 남부면 다포리 산 38-145
예구선착장,34.80189882,128.7151242,경남 거제시 일운면 와현리
옥동힐링가든,34.87046342,128.5462236,경남 거제시 둔덕면 상둔리 204
옥산성지,34.85414496,128.5983378,경남 거제시 거제면 동상리 산 28
옥포공원,34.89430429,128.7020048,경남 거제시 옥포동 산 71-21
옥포대첩기념공원,34.90210767,128.7144225,경남 거제시 옥포동 산 1-1
옥포항,34.89067227,128.6985215,경남 거제시 옥포동
올담농원,34.95078493,128.6516985,경남 거제시 하청면 하청리 795-4
와현모래숲해변,34.81367137,128.7071034,경남 거제시 일운면 와현리 381-5
외도구조라유람선,34.80515526,128.6952438,경남 거제시 일운면 구조라리 42-13
외도보타니아,34.76947141,128.7113816,경남 거제시 일운면 와현리 674
외도와현유람선,35.32902966,129.013424,경남 양산시 물금읍 범어리 2711-20
이수도(거제),34.9680015,128.729826,경남 거제시 장목면 시방리 835
장목진객사,34.98494468,128.6790078,경남 거제시 장목면 장목리 219-18
장사도근포유람선,34.72044663,128.5862588,경남 거제시 남부면 저구리 489-23
장승포항,34.86628954,128.7246353,경남 거제시 장승포동 685-1
장승포해안일주도로,34.86819626,128.7419788,경남 거제시 장승포동
저도,35.01847403,128.7409628,경남 거제시 장목면 유호리
죽림해수욕장,34.83751971,128.5861657,경남 거제시 거제면 오수리 817-2
지세포항,34.83169782,128.7034925,경남 거제시 일운면 지세포리 929-121
지심도,34.81713991,128.7493835,경남 거제시 일운면 옥림리 57-1
지심도선착장,34.81737271,128.7477338,경남 거제시 일운면 옥림리 산 1
청곡리지석묘,34.90107048,128.5105864,경남 거제시 사등면 청곡리 20-3
칠천량해전공원전시관,34.9775944,128.628975,경남 거제시 하청면 연구리 418-2
학동흑진주몽돌해변,34.77466779,128.6415262,경남 거제시 동부면 학동리 295-1
한화리조트거제벨버디어,35.00791121,128.7117807,경남 거제시 장목면 농소리 25
함목해수욕장,34.73997657,128.6528977,경남 거제시 남부면 갈곶리 370
해금강유람선,34.73779047,128.6731922,경남 거제시 남부면 갈곶리 86
해금강테마박물관,34.74000969,128.6628438,경남 거제시 남부면 갈곶리 262-5
홍포선착장,34.70532996,128.5992196,경남 거제시 남부면 저구리
황덕도,35.00944423,128.6220262,경남 거제시 하청면 대곡리
황포해수욕장,35.02039244,128.6745877,경남 거제시 장목면 구영리 1181-1
흥남해수욕장,34.95978333,128.7150014,경남 거제시 장목면 시방리 292
가조백두산천지온천,35.69848065,128.0230434,경남 거창군 가조면 일부리 1301
거창근대의료박물관,35.68625861,127.9119682,경남 거창군 거창읍 중앙리 283-6
거창박물관,35.67441102,127.9107554,경남 거창군 거창읍 김천리 216-5
거창사건역사교육관,35.55874821,127.9277008,경남 거창군 신원면 대현리 506
거창수승대,35.76000685,127.8321851,경남 거창군 위천면 강천리 790
거창스포츠파크,35.69342331,127.9277963,경남 거창군 거창읍 양평리 1160
거창창포원,35.65488476,127.9395911,경남 거창군 남상면 월평리 2286-1
고견사(거창),35.74561281,128.0392735,경남 거창군 가조면 수월리 1
금원산자연휴양림,35.73136995,127.797852,경남 거창군 위천면 상천리 1078-2
송계사(거창),35.83480764,127.7967879,경남 거창군 북상면 소정리 산 27
수포대,35.69685717,128.0682121,경남 거창군 가조면 도리 1529-144
연수사(거창),35.59753559,127.9195986,경남 거창군 남상면 무촌리 40-1
월성계곡,35.75764029,127.7297295,경남 거창군 북상면 월성리 산 230
갈모봉산림욕장,34.97325442,128.2681476,경남 고성군 고성읍 이당리 산 144
계승사(고성),35.05307121,128.2242078,경남 고성군 영현면 대법리 산 17-1
고성공룡박물관,34.90814901,128.1486627,경남 고성군 하이면 덕명리 82
고성박물관,34.9793553,128.3208199,경남 고성군 고성읍 송학리 475-1
고성생태학습관,34.98373856,128.3437136,경남 고성군 고성읍 송학리 134-1
고성송학동고분군,34.98061095,128.3213876,경남 고성군 고성읍 송학리 470
고성시장,34.97701424,128.3229242,경남 고성군 고성읍 서외리 1-6
고성자란만,34.94590153,128.2220608,경남 고성군 하일면 용태리
고성탈박물관,34.97106225,128.3337779,경남 고성군 고성읍 율대리 646
구절산,35.02485035,128.4204638,경남 고성군 동해면 장좌리 산 106
그레이스정원,34.9747144,128.169017,경남 고성군 상리면 동산리 797-1
당항포관광지,35.05948578,128.3994493,경남 고성군 회화면 봉동리 950-1
만화방초,34.9603597,128.3855,경남 고성군 거류면 은월리 17-8
맥전포항,34.89938803,128.1641982,경남 고성군 하일면 춘암리 790-7
문수암(고성),34.97895813,128.2112813,경남 고성군 상리면 무선리 291-5
소담수목원,35.06385607,128.4650068,경남 고성군 동해면 외산리 50-1
엄홍길전시관,34.97261263,128.3868605,경남 고성군 거류면 송산리 276
오두산치유숲,35.01813386,128.1815591,경남 고성군 상리면 신촌리 산 31
옥천사(고성),35.08023825,128.2623609,경남 고성군 개천면 북평리 408
운흥사(경남),34.95847834,128.1537087,경남 고성군 하이면 와룡리 442
장산숲,35.0586763,128.3261475,경남 고성군 마암면 장산리 230-2
장의사(고성),34.98367531,128.3907835,경남 고성군 거류면 신용리 1076
적석산,35.10948374,128.3697473,경남 고성군 회화면 삼덕리 산 122-4
해맞이공원,35.05983262,128.4792763,경남 고성군 동해면 내산리 산 50-1
가야랜드,35.26051051,128.9020099,경남 김해시 삼방동 908-1
가야의거리,35.23557419,128.8723552,경남 김해시 봉황동
관음정사(김해),35.22159152,128.73068,경남 김해시 진례면 신안리 945
국립김해박물관,35.24288948,128.8734374,경남 김해시 구산동 232
김해가야테마파크,35.25059728,128.8930642,경남 김해시 어방동 986
김해구지봉,35.24303942,128.8760904,경남 김해시 구산동 산 81-2
김해대성동고분군,35.23715577,128.8738107,경남 김해시 대성동 434
김해롯데워터파크,35.18087756,128.8293051,경남 김해시 신문동 1417
김해목재문화박물관,35.18006006,128.8081328,경남 김해시 관동동 298
김해분산성,35.24551244,128.8908983,경남 김해시 어방동 산 971
김해분청도자박물관,35.25148626,128.7458712,경남 김해시 진례면 송정리 360
김해수로왕비릉,35.24326449,128.8776159,경남 김해시 구산동 산 80-1
김해시수도박물관,35.28474515,128.8225883,경남 김해시 한림면 명동리 736-1
김해천문대,35.25311871,128.8873012,경남 김해시 동상동 산 1-4
낙동강레일파크,35.37179795,128.8208284,경남 김해시 생림면 마사리 654-4
낙동강철교전망대,35.37507847,128.8234416,경남 김해시 생림면 마사리 856-4
대법륜사,35.22510714,128.8509579,경남 김해시 흥동 509-1
동림사(김해),35.26399806,128.914235,경남 김해시 삼방동 879-1
모은암,35.3492199,128.8613975,경남 김해시 생림면 생철리 산 180
봉하마을노무현대통령생가,35.314445,128.7712131,경남 김해시 진영읍 본산리 30
봉황대공원,35.23059764,128.8759751,경남 김해시 봉황동 158
분성산생태숲생태체험관,35.26732105,128.874569,경남 김해시 삼계동 산 47
송담서원(김해),35.24424413,128.8865913,경남 김해시 동상동 161
수릉원,35.2355076,128.8757236,경남 김해시 봉황동 431
신어산,35.27011379,128.9204083,경남 김해시 상동면 묵방리 산 43-2
연지공원,35.24638179,128.8688204,경남 김해시 내동 1037-6
은하사(김해),35.26575789,128.9125931,경남 김해시 삼방동 882
장유암(김해),35.19586119,128.7553897,경남 김해시 대청동 1129
장유율하카페거리,35.17594527,128.814512,경남 김해시 관동동 1104-14
진영역철도박물관,35.30355609,128.7299331,경남 김해시 진영읍 진영리 275-94
클레이아크김해미술관,35.24991137,128.7457176,경남 김해시 진례면 송정리 358
파사석탑,35.24346417,128.8777567,경남 김해시 구산동 120-1
해은사(김해),35.24570861,128.8924156,경남 김해시 어방동 산 9
흥부암(김해),35.22652094,128.8696695,경남 김해시 외동 23-3
거북선전시관,34.94205846,127.8749421,경남 남해군 설천면 노량리 353
구미동해변(구미동해수욕장),34.78540654,127.8466089,경남 남해군 남면 덕월리 1140-1
금산(남해),35.21309069,128.1171932,경남 진주시 초전동 311-7
금산보리암(남해),34.75200462,127.9829505,경남 남해군 상주면 상주리 2065
금왕사,34.77888552,127.9692117,경남 남해군 이동면 신전리 201-2
남해가인리화석산지,34.88631208,128.0492951,경남 남해군 창선면 가인리 산 60-20
남해가천암수바위,34.72645957,127.8940452,경남 남해군 남면 홍현리 849
남해각,34.94071203,127.872408,경남 남해군 설천면 노량리 443-18
남해관음포이충무공유적,34.91040321,127.8525602,경남 남해군 고현면 차면리 산 125
남해국제탈공연예술촌,34.8177519,127.9271898,경남 남해군 이동면 초음리 1418
남해대교유람선,34.94132693,127.8728852,경남 남해군 설천면 노량리 443-21
남해물건리방조어부림,34.79687701,128.0504465,경남 남해군 삼동면 물건리 산 12-1
남해미조리상록수림,34.71369585,128.0440929,경남 남해군 미조면 미조리 121
남해양떼목장양마르뜨언덕,34.79058904,128.0242276,경남 남해군 삼동면 봉화리 1311-1
남해유배문학관,34.83192717,127.8992875,경남 남해군 남해읍 남변리 555
남해토피아랜드,34.84562628,127.9817971,경남 남해군 창선면 지족리 588-1
대국산성,34.90060596,127.8973069,경남 남해군 설천면 진목리 산 184
독일마을,34.8000726,128.038548,경남 남해군 삼동면 물건리 1154
두곡_월포해수욕장,34.76832095,127.9075277,경남 남해군 남면 당항리 40-2
둔촌갯벌체험장,34.82624228,128.0344671,경남 남해군 삼동면 금송리 6-6
모상개해수욕장,34.83954961,128.0757524,경남 남해군 창선면 진동리
물미해안전망대,34.7698293,128.0533238,경남 남해군 삼동면 물건리 1048-3
미조항,34.75733159,128.2885118,경남 통영시 산양읍 추도리
바람흔적미술관,34.76223609,128.0127563,경남 남해군 삼동면 봉화리 1993-1
법흥사(남해),34.84245109,127.8921293,경남 남해군 남해읍 북변리 595
보물섬마늘나라,34.81668093,127.9241285,경남 남해군 이동면 다정리 906
사촌해수욕장,34.74355323,127.855931,경남 남해군 남면 임포리 1173-1
상상양떼목장편백숲,34.93604618,127.8896194,경남 남해군 설천면 문의리 산 187-1
상주은모래비치,34.72063654,127.9887668,경남 남해군 상주면 상주리 1136-1
설리스카이워크,34.70850292,128.0230684,경남 남해군 미조면 송정리 1029-13
설리해수욕장,34.70656643,128.0260025,경남 남해군 미조면 송정리 967-1
설흘산,34.73525604,127.9000612,경남 남해군 남면 홍현리 산 236
섬이정원,34.75224898,127.8606513,경남 남해군 남면 평산리 888-4
송정솔바람해변,34.72163321,128.023931,경남 남해군 미조면 송정리 1124-6
용문사(남해),34.78796667,127.9229624,경남 남해군 이동면 용소리 868
운대암(남해),34.86751195,127.9907131,경남 남해군 창선면 옥천리 1042
원예예술촌,34.80364653,128.0361123,경남 남해군 삼동면 봉화리 2611
이순신순국공원,34.91145635,127.858145,경남 남해군 고현면 차면리 842
이순신영상관,34.91342154,127.8570909,경남 남해군 고현면 차면리 107
임진성,34.77929913,127.8660361,경남 남해군 남면 상가리 291
천하몽돌해수욕장,34.72404877,128.0131659,경남 남해군 미조면 송정리
항도몽돌해수욕장,34.7407556,128.0486393,경남 남해군 미조면 송정리
화방사(남해),34.86450707,127.8636039,경남 남해군 고현면 대곡리 1448
금시당,35.49179499,128.7809203,경남 밀양시 활성동
만어사,35.45489173,128.8460704,경남 밀양시 삼랑진읍 용전리 4
미리미동국(진장문화예술플랫폼),35.4908744,128.7494225,경남 밀양시 삼문동 384-4
밀양관아,35.49422784,128.7541267,경남 밀양시 내일동 376
밀양대법사,35.4665351,128.6064175,경남 밀양시 무안면 중산리 1128-1
밀양아리랑대공원,35.50497437,128.7609861,경남 밀양시 교동 515-2
밀양아리랑시장,35.49301784,128.7525577,경남 밀양시 내일동 583-1
밀양아리랑우주천문대,35.50257947,128.7610814,경남 밀양시 교동 480-5
밀양영남루,35.49156456,128.7550781,경남 밀양시 내일동 40
밀양한천테마파크,35.58952051,128.8781825,경남 밀양시 산내면 봉의리 1596-57
밀양향교,35.50653779,128.7547482,경남 밀양시 교동 733
석골사,35.61592851,128.9272267,경남 밀양시 산내면 원서리 454
수산제역사공원,35.38195108,128.7169844,경남 밀양시 하남읍 양동리 671
여여정사,35.44019977,128.8930411,경남 밀양시 삼랑진읍 행곡리 1066
영남알프스얼음골케이블카,35.58276857,128.9870449,경남 밀양시 산내면 삼양리 71
월연정,35.49868801,128.7798823,경남 밀양시 용평동 2-1
재약산,35.54541657,128.9805579,경남 밀양시 단장면 구천리 산 1
종남산(밀양),35.44847501,128.7221025,경남 밀양시 상남면 남산리 산 181-2
추화산성,35.5037592,128.7691412,경남 밀양시 교동 62-3
표충사(밀양),35.53252155,128.9604272,경남 밀양시 단장면 구천리 23
표충사우리아이마음숲놀이터,35.53253604,128.9461844,경남 밀양시 단장면 구천리 305-1
혜산서원,35.50436804,128.8133384,경남 밀양시 산외면 다죽리 607
호박소계곡,35.59251612,128.9952688,경남 밀양시 산내면 삼양리 산 10-1
경백사,35.02822499,128.058114,경남 사천시 용현면 온정리 518-1
곤양향교,35.06112945,127.9689315,경남 사천시 곤양면 송전리 355
남일대해수욕장,34.92658645,128.096398,경남 사천시 향촌동 710-1
노산공원,34.9249933,128.0741524,경남 사천시 서금동 101-1
다솔사(경남),35.08314186,127.9200777,경남 사천시 곤명면 용산리 산 86
대방진굴항,34.92891344,128.0567584,경남 사천시 대방동 251
모충공원,34.96850123,128.0479026,경남 사천시 송포동 산 161-5
박재삼문학관,34.92593613,128.0743529,경남 사천시 서금동 101-67
백천사(사천),34.99647137,128.0924837,경남 사천시 백천동 108-1
별주부전테마파크,34.96752352,127.9817601,경남 사천시 서포면 비토리 산 40
봉명산시립공원,35.08353545,127.9190471,경남 사천시 곤명면 용산리 85-1
부잔교갯벌탐방로,35.00939549,128.0468727,경남 사천시 용현면 금문리 212-3
비토섬,34.9725158,127.9718201,경남 사천시 서포면 비토리
사천바다케이블카,34.93367326,128.0531442,경남 사천시 대방동 706
사천조명군총,35.04147053,128.0477683,경남 사천시 용현면 선진리 402
사천첨단항공우주과학관,35.07083701,128.0635566,경남 사천시 사남면 유천리 908
사천향교,35.0859471,128.1008774,경남 사천시 사천읍 선인리 119
사천흥사리매향비,35.08655258,128.0149531,경남 사천시 곤양면 흥사리 산 48-2
삼천포대교공원,34.93212896,128.0518264,경남 사천시 대방동 681-2
삼천포신항,34.92654949,128.0872714,경남 사천시 향촌동 1031-15
삼천포용궁수산시장,34.92745612,128.0708444,경남 사천시 동동 485-2
삼천포유람선,34.9284757,128.0623037,경남 사천시 대방동 765-14
삼천포팔포항,34.92590589,128.0795946,경남 사천시 동금동 579-8
삼천포항,34.92590589,128.0795946,경남 사천시 동금동 579-8
선진공원,35.04467076,128.0416367,경남 사천시 용현면 선진리 1086
와룡산,34.98084173,128.0990416,경남 사천시 백천동 산 60-1
저도(딱섬),34.75157273,128.3996571,경남 통영시 산양읍 저림리 190-2
청널공원,34.9279762,128.0649983,경남 사천시 서동 353
초양도,34.92640804,128.0442109,경남 사천시 늑도동
코끼리바위(사천),34.92106085,128.0974407,경남 사천시 향촌동
남사예담촌,35.27421895,127.9363411,경남 산청군 단성면 남사리 281-1
내원사(산청),35.45901183,128.0195662,경남 합천군 가회면 오도리
단성향교,35.30925206,127.9550629,경남 산청군 단성면 강누리 595-1
대원사(산청),35.35565143,127.807086,경남 산청군 삼장면 유평리 1
대포서원,35.46112711,127.8533307,경남 산청군 생초면 대포리 177
대포숲,35.29635521,127.8306874,경남 산청군 삼장면 대포리 319
덕양전,35.45777111,127.7973886,경남 산청군 금서면 화계리 370
덕천서원(산청),35.27465252,127.8331871,경남 산청군 시천면 원리 219-3
도천서원,35.32741792,127.952857,경남 산청군 신안면 신안리 178
둔철산,35.38521958,127.9420277,경남 산청군 산청읍 범학리 산 31
목면시배유지,35.29002755,127.9580074,경남 산청군 단성면 사월리 105-1
문수암(산청),35.28821335,127.8536491,경남 산청군 시천면 사리 155-1
배산서원,35.29338812,127.9561166,경남 산청군 단성면 사월리 544-3
봉산서원(산청),35.34432968,128.0187304,경남 산청군 생비량면 도전리 859
산청단속사지동삼층석탑,35.32149073,127.8997202,경남 산청군 단성면 운리 332
산청박물관,35.49145691,127.8311303,경남 산청군 생초면 어서리 772
산청이사재,35.2766028,127.9350716,경남 산청군 단성면 사월리 1393
산청전구형왕릉,35.44937168,127.8005705,경남 산청군 금서면 화계리 산 16
산청향교,35.41659279,127.8809495,경남 산청군 산청읍 지리 369-1
삼장사지삼층석탑,35.34143424,127.8261723,경남 산청군 삼장면 평촌리 398
생초국제조각공원,35.49224171,127.8312927,경남 산청군 생초면 어서리 772
서계서원,35.41691956,127.8855641,경남 산청군 산청읍 지리 518
송정숲,35.33570384,127.8383361,경남 산청군 삼장면 석남리
수선사,35.39906519,127.8699185,경남 산청군 산청읍 내리 1117-1
심적사(산청),35.38346667,127.8692756,경남 산청군 산청읍 내리 1127
완계서원,35.38451446,128.0197702,경남 산청군 신등면 단계리 113
웅석봉군립공원,35.37965934,127.8688122,경남 산청군 산청읍 내리 산 158
정취암,35.3896545,127.9748966,경남 산청군 신등면 양전리 927-2
중산리자연휴양림,35.29154423,127.7457363,경남 산청군 시천면 중산리 산 153-1
지리산빨치산토벌전시관,35.29123178,127.7542619,경남 산청군 시천면 중산리 519-2
황매산미리내파크/황매산영화주제공원,35.48760138,127.9686378,경남 산청군 차황면 법평리 1-2
3D과학체험관,35.38986944,129.1557342,경남 양산시 주진동 산 63-15
가야진사,35.36753533,128.9023529,경남 양산시 원동면 용당리 616-1
계원사(양산),35.34136525,129.0440843,경남 양산시 중부동 77
내원사(양산),35.42466048,129.1044642,경남 양산시 하북면 용연리 291
미타암(양산),35.40517756,129.1311663,경남 양산시 소주동 1238
법기수원지,35.34797443,129.1062967,경남 양산시 동면 법기리 332
신흥사(양산),35.42644619,128.9508944,경남 양산시 원동면 영포리 268
양산시립박물관,35.35862274,129.0490459,경남 양산시 북정동 678
양산오봉산,35.33122508,128.9851942,경남 양산시 원동면 화제리 산 63-1
양산천태산,35.4177191,128.9065255,경남 양산시 원동면 용당리 산 226-1
양산타워,35.32608469,129.0239994,경남 양산시 동면 석산리 1518
양산향교,35.34514177,129.0268152,경남 양산시 교동 198-2
에덴밸리스키장(에덴밸리리조트),35.42904184,128.9844845,경남 양산시 원동면 대리 1040-14
원효암(양산),35.39590265,129.1033466,경남 양산시 상북면 대석리 1-1
임경대,35.32235517,128.9762216,경남 양산시 원동면 화제리 산 72-4
통도사성보박물관,35.48845118,129.0665299,경남 양산시 하북면 지산리 산 83-60
통도사자장암,35.4870277,129.0525803,경남 양산시 하북면 지산리 산 83-1
한국궁중꽃박물관,35.36666822,129.1757988,경남 양산시 매곡동 823
홍룡사(양산),35.39719118,129.0863141,경남 양산시 상북면 대석리 1
홍룡폭포,35.39723646,129.0872398,경남 양산시 상북면 대석리 산 129
덕곡서원,35.31306766,128.253359,경남 의령군 의령읍 하리 621
백산안희제생가,35.45423257,128.3496799,경남 의령군 부림면 입산리 168
봉황대(의령),35.43684678,128.2414344,경남 의령군 궁류면 평촌리 산 62
유학사(의령),35.50479703,128.318215,경남 의령군 부림면 묵방리 49
의령곤충생태학습관,35.3184686,128.2828638,경남 의령군 의령읍 무전리 1020
의령수암사,35.3079259,128.2284216,경남 의령군 의령읍 하리 840
의령예술촌,35.4349714,128.2238568,경남 의령군 궁류면 벽계리 219
의령향교,35.32202794,128.2577069,경남 의령군 의령읍 서동리 393
일붕사(의령),35.43628668,128.2398093,경남 의령군 궁류면 평촌리 174
자굴산,35.3770749,128.2034802,경남 의령군 가례면 갑을리 산 137
정암루(솥바위),35.31403589,128.2958236,경남 의령군 의령읍 정암리 430-86
충익사(의령),35.31537566,128.2612588,경남 의령군 의령읍 중동리 468
태암서원,35.3403668,128.2760231,경남 의령군 용덕면 죽전리 397-1
한우산,35.39520587,128.1923609,경남 의령군 대의면 신전리 산 17
호국의병의숲친수공원,35.39797866,128.4303792,경남 의령군 지정면 성산리 672
호암이병철선생생가,35.38205067,128.3231964,경남 의령군 정곡면 중교리 723
가호서원,35.1667393,128.3324788,경남 진주시 이반성면 용암리 119
강주연못,35.11318454,128.0950298,경남 진주시 정촌면 예하리 911-11
경상남도수목원,35.15962875,128.2946976,경남 진주시 이반성면 대천리 530-3
광제서원,35.27540966,128.0310949,경남 진주시 명석면 계원리 543
국립진주박물관,35.18897617,128.0768381,경남 진주시 남성동 169-17
금호못유원지,35.21451212,128.1539815,경남 진주시 금산면 용아리 1102-26
남가람박물관,35.15257312,128.0547404,경남 진주시 내동면 삼계리 16-32
남강댐노을공원,35.16076289,128.0312351,경남 진주시 내동면 삼계리 682-5
남악서원,35.07648547,128.1781459,경남 진주시 금곡면 죽곡리 110-2
대각서원,35.22352222,127.922736,경남 진주시 수곡면 사곡리 518
망진산봉수대,35.17711738,128.075865,경남 진주시 망경동 22-5
석류공원,35.16633161,128.1049847,경남 진주시 가좌동 산 88-7
성전암(진주),35.20749791,128.3517157,경남 진주시 이반성면 장안리 802
연화사(진주),35.08460079,128.0879678,경남 사천시 사천읍 정의리 395-4
응석사(진주),35.29668469,128.0585276,경남 진주시 집현면 정평리 741
의곡사(진주),35.20401342,128.0813939,경남 진주시 상봉동 415-1
이현종합시장/이현종합상가,35.19199199,128.0661357,경남 진주시 이현동 21-3
자유시장(진주),35.18017032,128.110292,경남 진주시 상대동 276-9
정글어드벤처,35.18098565,128.0403914,경남 진주시 판문동 97
진양호,35.1880762,127.984441,경남 진주시 대평면 당촌리 458
진양호호반전망대,35.1765861,128.0325239,경남 진주시 판문동 산 171-5
진주농산물도매시장,35.211454,128.1230307,경남 진주시 초전동 260
진주목공예전수관,35.24705253,128.041894,경남 진주시 명석면 관지리 767
진주성,35.18955476,128.0799814,경남 진주시 본성동 415
진주시립이성자미술관,35.17588267,128.142962,경남 진주시 충무공동 291
진주어린이박물관,35.18112163,128.0788291,경남 진주시 망경동 218-3
진주유수리백악기화석산지,35.12490341,128.0169251,경남 진주시 내동면 유수리 483
진주음악분수대,35.18588378,128.0756248,경남 진주시 신안동 274-1
진주익룡발자국전시관,35.16888067,128.1392123,경남 진주시 충무공동 136
진주중앙유등시장,35.19368544,128.0857235,경남 진주시 대안동 8-568
진주청동기문화박물관,35.22381989,127.9622943,경남 진주시 대평면 대평리 706-5
진주향교,35.19784476,128.0926568,경남 진주시 옥봉동 232-1
창열사,35.18803166,128.076123,경남 진주시 남성동 213-1
청곡사(진주),35.19014392,128.1809965,경남 진주시 금산면 갈전리 18
초전공원,35.20515884,128.1261923,경남 진주시 초전동 1583-40
촉석루,35.1894767,128.08186,경남 진주시 본성동 500-10
총림선원(진주),35.17702466,128.0777782,경남 진주시 망경동 619
호국사(진주),35.18728487,128.0749626,경남 진주시 남성동 270-9
관룡사,35.53190255,128.5531515,경남 창녕군 창녕읍 옥천리 292
관음사(창녕),35.40531646,128.5061382,경남 창녕군 도천면 송진리 562
광산서당,35.48953256,128.4400508,경남 창녕군 유어면 광산리 852
구니서당,35.58028935,128.524927,경남 창녕군 고암면 계상리 1160
남지체육공원,35.38464117,128.4717311,경남 창녕군 남지읍 남지리 835-25
도성암(창녕),35.5436718,128.5203741,경남 창녕군 창녕읍 송현리 8
물계서원,35.56531141,128.4686177,경남 창녕군 대지면 모산리 80
박진전쟁기념관,35.44798628,128.3861674,경남 창녕군 남지읍 월하리 624
산토끼노래동산,35.57770878,128.3835852,경남 창녕군 이방면 안리 739
소곡서당,35.56514697,128.5156797,경남 창녕군 고암면 우천리 775
연지못,35.45458125,128.5281638,경남 창녕군 영산면 서리
영산향교,35.4612623,128.5351636,경남 창녕군 영산면 교리 51
영산호국공원,35.45352085,128.5307695,경남 창녕군 영산면 동리 434
용선대,35.53147768,128.5489098,경남 창녕군 창녕읍 옥천리 산 328
우포늪생태관,35.54460752,128.4190696,경남 창녕군 유어면 세진리 232
우포늪생태체험장,35.56594783,128.4212414,경남 창녕군 대합면 주매리 556-2
우포잠자리나라,35.5655276,128.4179737,경남 창녕군 대합면 주매리 481
창녕만옥정공원,35.54090235,128.5020449,경남 창녕군 창녕읍 교상리 28-23
창녕박물관,35.54580725,128.5050342,경남 창녕군 창녕읍 교리 87-1
창녕석빙고,35.54248499,128.4982681,경남 창녕군 창녕읍 송현리 288
창녕술정리동삼층석탑,35.5396099,128.4961109,경남 창녕군 창녕읍 술정리 412-20
창녕신라진흥왕척경비,35.54073712,128.5025755,경남 창녕군 창녕읍 교상리 28-1
창녕영산석빙고,35.45680506,128.5382666,경남 창녕군 영산면 교리 410-2
창녕우포늪,35.55255112,128.4134124,경남 창녕군 유어면 대대리 1197
창녕인양사조성비,35.54383763,128.494134,경남 창녕군 창녕읍 교리 294
창녕지석묘,35.46328113,128.4829752,경남 창녕군 장마면 유리 산 9
창녕포교당,35.53940381,128.5034062,경남 창녕군 창녕읍 말흘리 123-2
창녕향교,35.54775161,128.4979779,경남 창녕군 창녕읍 교리 440
청련암(창녕),35.49092484,128.5436891,경남 창녕군 계성면 사리 852
학포수변생태공원,35.37752413,128.6384861,경남 창녕군 부곡면 학포리 392-2
가포수변공원,35.1558383,128.5836881,경남 창원시 마산합포구 가포동 186-4
고현리공룡발자국화석,35.09962197,128.4814052,경남 창원시 마산합포구 진동면 고현리 102-1
광암해수욕장,35.10198241,128.5010366,경남 창원시 마산합포구 진동면 요장리
마산로봇랜드,35.07712259,128.587046,경남 창원시 마산합포구 구산면 반동리 산 105
마산어시장,35.20297333,128.5764929,경남 창원시 마산합포구 남성동 223-1
마산오동동아구찜거리,35.20611277,128.577913,경남 창원시 마산합포구 오동동 191
마산향교,35.11881576,128.4990309,경남 창원시 마산합포구 진동면 교동리 544
몽고정,35.20311729,128.5687415,경남 창원시 마산합포구 자산동 342-2
무학산,35.20991648,128.535547,경남 창원시 마산회원구 내서읍 감천리 산 131
부림시장먹자골목,35.20616305,128.5779272,경남 창원시 마산합포구 오동동 190-2
산호공원,35.21414728,128.5815738,경남 창원시 마산합포구 산호동 247
상상길(창원),35.20658109,128.5762772,경남 창원시 마산합포구 중성동 169-4
서원곡유원지,35.20897601,128.5538763,경남 창원시 마산합포구 교방동
실리도,35.06304208,128.6350248,경남 창원시 마산합포구 구산면 심리 산 1
오동동통술거리,35.18777082,128.5612229,경남 창원시 마산합포구 두월동1가 9
월영대,35.18006642,128.5573477,경남 창원시 마산합포구 해운동 8-4
의림사,35.13856238,128.4392706,경남 창원시 마산합포구 진북면 인곡리 439
임항선그린웨이,35.21015941,128.5705604,경남 창원시 마산합포구 성호동 51-4
저도(창원),35.06173723,128.5561008,경남 창원시 마산합포구 구산면 구복리 산 171-1
저도콰이강의다리(스카이워크),35.06733858,128.5626176,경남 창원시 마산합포구 구산면 구복리 304-6
창동예술촌,35.20704388,128.57465,경남 창원시 마산합포구 중성동 117-3
창원시립마산문신미술관,35.20631536,128.5689831,경남 창원시 마산합포구 추산동 51-1
창원시립마산박물관,35.20567901,128.5689193,경남 창원시 마산합포구 추산동 54-36
창원시립마산음악관,35.19761374,128.5719822,경남 창원시 마산합포구 신포동1가 68-1
추산근린공원,35.20747571,128.5672782,경남 창원시 마산합포구 자산동 산 21-4
동마산시장,35.24004082,128.5875471,경남 창원시 마산회원구 합성동 326-1
삼계근린공원,35.22609193,128.5030995,경남 창원시 마산회원구 내서읍 삼계리 197-1
CECO창원컨벤션센터,35.23840635,128.6568952,경남 창원시 성산구 대원동 123
가음정시장,35.20828305,128.6977984,경남 창원시 성산구 가음동 21-3
기업사랑공원,35.20961114,128.6863446,경남 창원시 성산구 가음정동 626
대끼리상남시장,35.2222154,128.6833809,경남 창원시 성산구 상남동 16
대방녹지공원,35.2022471,128.6994383,경남 창원시 성산구 가음동
반송시장,35.23506529,128.6707421,경남 창원시 성산구 반림동 17-13
불곡사(창원),35.21577087,128.7016134,경남 창원시 성산구 대방동 1036-1
삼귀해안,35.16361385,128.600718,경남 창원시 성산구 귀산동
삼정자전통놀이공원,35.20280469,128.7069514,경남 창원시 성산구 남산동 148
성주사(창원),35.17682544,128.7175808,경남 창원시 성산구 천선동 102
안민고개,35.16835827,128.6965596,경남 창원시 진해구 석동
창원과학체험관,35.23023462,128.6618506,경남 창원시 성산구 중앙동 120
창원성산패총,35.20878667,128.6797874,경남 창원시 성산구 외동 853-7
창원수목원,35.22824858,128.65552,경남 창원시 성산구 삼동동 산 14-1
창원올림픽공원,35.22513079,128.6590415,경남 창원시 성산구 중앙동 119
창원장미공원,35.20657223,128.6917697,경남 창원시 성산구 가음동 31
경남도립미술관,35.23946503,128.6908555,경남 창원시 의창구 퇴촌동 산 134-17
대산미술관,35.34491212,128.7442223,경남 창원시 의창구 대산면 유등리 294-22
대산플라워랜드,35.35623832,128.7168501,경남 창원시 의창구 대산면 모산리 4-11
도계부부시장,35.25732182,128.6372525,경남 창원시 의창구 도계동 400-1
마금산원탕,35.35465206,128.6094169,경남 창원시 의창구 북면 신촌리 406-4
명서전통시장,35.24951143,128.6464469,경남 창원시 의창구 명서동 49-9
본포수변생태공원,35.37077664,128.6465917,경남 창원시 의창구 동읍 본포리
북면수변생태공원,35.38058048,128.6097777,경남 창원시 의창구 북면 외산리 108
불모산노을전망대,35.16614668,128.7410103,경남 창원시 진해구 소사동 산 24
사화공원,35.25224506,128.6277151,경남 창원시 의창구 중동 145
소계시장,35.25681674,128.599011,경남 창원시 의창구 소계동 724-4
우곡사(창원),35.24892535,128.7165638,경남 창원시 의창구 동읍 단계리 7
정병산,35.26323099,128.69227,경남 창원시 의창구 동읍 단계리 산 29-1
주남저수지람사르문화관,35.30709198,128.6779774,경남 창원시 의창구 동읍 월잠리 303-7
주남저수지생태학습관,35.30774811,128.6779085,경남 창원시 의창구 동읍 월잠리 306-16
창원단감테마공원,35.29855014,128.6634454,경남 창원시 의창구 동읍 화양리 665
창원마법의정원,35.34239637,128.5826047,경남 창원시 의창구 북면 내곡리 585
창원봉곡시장,35.2470562,128.6719021,경남 창원시 의창구 봉곡동 502-36
창원역사민속관,35.24502039,128.6807455,경남 창원시 의창구 사림동 80-2
창원의집,35.24445723,128.6815819,경남 창원시 의창구 사림동 69
창원향교,35.26782921,128.6234071,경남 창원시 의창구 소답동 433-2
천주산,35.27153654,128.5912143,경남 창원시 의창구 소계동 산 59
김씨박물관,35.12915191,128.776256,경남 창원시 진해구 소사동 49-2
대광사(창원),35.17133109,128.658391,경남 창원시 진해구 태백동 산 84-14
명동도선장,35.09754339,128.7226236,경남 창원시 진해구 명동 330-2
삼밀사,35.17518917,128.6607651,경남 창원시 진해구 태백동 산 52-1
삼포항,35.09328325,128.7287029,경남 창원시 진해구 명동
성흥사(진해),35.14776905,128.7793378,경남 창원시 진해구 대장동 180
성흥사계곡,35.14655243,128.7782316,경남 창원시 진해구 대장동 246
소쿠리섬,35.08118131,128.71061,경남 창원시 진해구 명동
속천항,35.14405327,128.6732859,경남 창원시 진해구 제황산동
수치해안,35.10605337,128.7038389,경남 창원시 진해구 풍호동
여좌천(벚꽃명소),35.16222978,128.6604143,경남 창원시 진해구 여좌동
웅천도요지전시관,35.12737516,128.8156243,경남 창원시 진해구 두동 24
웅천안골왜성,35.0926074,128.8022698,경남 창원시 진해구 안골동 산 27
웅천왜성,35.09711037,128.7596079,경남 창원시 진해구 제덕동 산 58
장복산조각공원,35.17303644,128.6546851,경남 창원시 진해구 태백동 산 84-3
제황산공원,35.14835052,128.6654254,경남 창원시 진해구 제황산동 28-5
주기철목사기념관,35.11108649,128.7523957,경남 창원시 진해구 남문동 841
진해근대문화역사길,35.149428,128.659149,경남 창원시 진해구 대천동 3
진해내수면환경생태공원,35.16403428,128.6600032,경남 창원시 진해구 태백동 42
진해드림파크,35.13219338,128.7165561,경남 창원시 진해구 장천동 44-18
진해루해변공원,35.14721777,128.6852931,경남 창원시 진해구 경화동
진해보타닉뮤지엄,35.13005605,128.7175468,경남 창원시 진해구 장천동 44-11
진해해양공원,35.09241718,128.7197043,경남 창원시 진해구 명동 656
창원시립진해박물관,35.14912221,128.6635714,경남 창원시 진해구 제황산동 28-6
창원편백치유의숲,35.17214852,128.6587193,경남 창원시 진해구 태백동 산 52-103
흰돌메공원,35.0999103,128.772485,경남 창원시 진해구 남문동 산 4-4
강구안,34.84385023,128.4241496,경남 통영시 중앙동 236
김춘수유품전시관,34.83338361,128.4161733,경남 통영시 봉평동 451
남망산조각공원,34.84087502,128.4300629,경남 통영시 동호동 230-1
달아공원,34.76916384,128.3992681,경남 통영시 산양읍 연화리 114
달아항,34.76820423,128.4068277,경남 통영시 산양읍 미남리 822-16
당포성지,34.79313069,128.3847068,경남 통영시 산양읍 삼덕리 244
당포항,34.79343239,128.3817947,경남 통영시 산양읍 삼덕리 868-27
덕동해수욕장,34.63559017,128.236802,경남 통영시 욕지면 서산리
만지도,34.73984254,128.3831204,경남 통영시 산양읍 저림리
매물도,34.64078598,128.5734159,경남 통영시 한산면 매죽리
미래사(통영),34.80459108,128.420895,경남 통영시 산양읍 영운리 915
미래사편백나무숲,34.80317641,128.421015,경남 통영시 산양읍 영운리
미륵산(통영),34.81066654,128.4161276,경남 통영시 봉평동 산 19-1
박경리기념관,34.80236494,128.4038021,경남 통영시 산양읍 신전리 1429-9
박경리생가,34.84665533,128.4201222,경남 통영시 문화동 328-1
벽방산,34.94855605,128.3832282,경남 통영시 광도면 안정리
봉암해수욕장,34.75916749,128.5122384,경남 통영시 한산면 추봉리
비진도,34.72610729,128.4623533,경남 통영시 한산면 비진리
비진도해수욕장,34.72051894,128.4599625,경남 통영시 한산면 비진리 353
사량도,34.84660734,128.1934155,경남 통영시 사량면 금평리
사량도대항해수욕장,34.85097606,128.2128269,경남 통영시 사량면 금평리 545-1
삼덕항,34.79574289,128.3834241,경남 통영시 산양읍 삼덕리
삼여전망대(욕지도),34.6215376,128.2514134,경남 통영시 욕지면 서산리 산 8-218
새에덴동산,34.61369162,128.2359931,경남 통영시 욕지면 서산리 88-1
서피랑공원,34.84466101,128.4205613,경남 통영시 중앙동 192
소매물도,34.62603269,128.5495247,경남 통영시 한산면 매죽리
수륙해수욕장,34.81993082,128.4397294,경남 통영시 산양읍 영운리 45-2
수우도,34.83055005,128.1343431,경남 통영시 사량면 돈지리 산 337-1
안정근린공원,34.95151463,128.4131668,경남 통영시 광도면 안정리 2051
안정사,34.94371992,128.3954193,경남 통영시 광도면 안정리 1888
연대도해수욕장,34.7343887,128.395987,경남 통영시 산양읍 연곡리
연화도(통영),34.64599423,128.3543242,경남 통영시 욕지면 연화리
연화사(통영),34.64642572,128.3553204,경남 통영시 욕지면 연화리 90-2
용호도,34.74123592,128.4905282,경남 통영시 한산면 용호리 산 131
용화사(통영),34.81860996,128.4154963,경남 통영시 봉평동 404
유동해변,34.6233494,128.2428573,경남 통영시 욕지면 서산리
이순신공원,34.84430333,128.4422965,경남 통영시 정량동 683
장사도,34.71190308,128.5596732,경남 통영시 한산면 매죽리
장사도해상공원,34.84900669,128.5909878,경남 거제시 거제면 남동리 4-1
적촌선착장,34.89986135,128.4629633,경남 통영시 용남면 원평리 293-43
전혁림미술관,34.82653163,128.4151073,경남 통영시 봉평동 189-1
제승당,34.79421841,128.4718804,경남 통영시 한산면 두억리 874
착량묘,34.83567319,128.4105676,경남 통영시 당동 8
척포항,34.76506473,128.4216633,경남 통영시 산양읍 미남리
청마문학관,34.84507162,128.4352563,경남 통영시 정량동 863-1
추봉도,34.76137604,128.5210376,경남 통영시 한산면 추봉리
통영RCE세자트라숲,34.84906146,128.4478221,경남 통영시 용남면 화삼리 210
통영루지,34.82437482,128.4241399,경남 통영시 도남동 318-4
통영삼도수군통제영,34.84724206,128.4232853,경남 통영시 문화동 392-2
통영생태숲,34.8368479,128.4054815,경남 통영시 당동 325
통영세병관,34.84771318,128.423077,경남 통영시 문화동 62
통영수산과학관,34.76416954,128.4068597,경남 통영시 산양읍 미남리 682-1
통영시립박물관,34.84073582,128.4166972,경남 통영시 도천동 28
통영옻칠미술관,34.85455405,128.4431184,경남 통영시 용남면 화삼리 658
통영추도,34.7561871,128.2954573,경남 통영시 산양읍 추도리
통영한산도이충무공유적,34.79376913,128.4720647,경남 통영시 한산면 두억리 874
통영항,34.83944973,128.420322,경남 통영시 서호동 316
통영해양관광공원,34.82948913,128.4053641,경남 통영시 미수동 913-28
통영향교,34.8786023,128.4076346,경남 통영시 광도면 죽림리 945-2
한려수도조망케이블카,34.82678774,128.4262079,경남 통영시 도남동 349-1
한려해상국립공원생태탐방원,34.77987552,128.3888483,경남 통영시 산양읍 연화리 1193-1
한산대첩기념비,34.79957832,128.4665955,경남 통영시 한산면 두억리 산 42-1
한산도,34.77826712,128.4868508,경남 통영시 한산면 두억리
해저터널(통영),34.83586089,128.4111698,경남 통영시 당동 13
흰작살해변,34.64435102,128.2656509,경남 통영시 욕지면 동항리
경남하동악양(슬로시티),35.15305844,127.6889482,경남 하동군 악양면 평사리 377-1
경충사(정기룡장군유허지),34.9837819,127.8949981,경남 하동군 금남면 중평리 821-1
구재봉자연휴양림,35.1288842,127.7433024,경남 하동군 적량면 서리 산 276
금오산전망대,34.99271349,127.8700569,경남 하동군 진교면 고룡리 873-5
노량대교홍보관,34.94873036,127.8661283,경남 하동군 금남면 노량리 623-1
노량항,34.94701134,127.8604398,경남 하동군 금남면 노량리 742-12
도심다원,35.21915518,127.6477825,경남 하동군 화개면 정금리 525
동정호,35.14595882,127.6871611,경남 하동군 악양면 평사리 305-2
매암차문화박물관,35.16111124,127.7093649,경남 하동군 악양면 정서리 293
삼성궁,35.2419697,127.7016088,경남 하동군 청암면 묵계리 1561-1
스타웨이,35.1492374,127.6805417,경남 하동군 악양면 평사리 1163-5
쌍계사(하동),35.23284435,127.6498434,경남 하동군 화개면 운수리 208
쌍계사차나무시배지,35.22824602,127.6447395,경남 하동군 화개면 운수리 산 127-4
옥종불소유황천,35.15689535,127.892149,경남 하동군 옥종면 정수리 34
정금다원,35.21062365,127.6412571,경남 하동군 화개면 정금리 1079
지리산생태과학관,35.15060794,127.6756203,경남 하동군 악양면 평사리 1211
지리산역사관,35.28979891,127.6461725,경남 하동군 화개면 대성리 1389
최참판댁,35.15559061,127.6881004,경남 하동군 악양면 평사리 483
취간림,35.1623371,127.7110482,경남 하동군 악양면 정동리 652
칠보정사(하동),35.13780471,127.7603041,경남 하동군 적량면 서리 550
칠불사(하동),35.28277574,127.6086514,경남 하동군 화개면 범왕리 1605
평사리공원,35.1378351,127.689215,경남 하동군 악양면 평사리 97-3
평사리문학관,35.15536133,127.6865718,경남 하동군 악양면 평사리 705
하동고소성,35.15439053,127.6790647,경남 하동군 악양면 평사리 산 31
하동공설시장,35.06976232,127.7481556,경남 하동군 하동읍 읍내리 261-2
하동공원,35.06812528,127.7452595,경남 하동군 하동읍 읍내리
하동국사암,35.23719019,127.6499121,경남 하동군 화개면 운수리 213
하동레일파크,35.1134513,127.893145,경남 하동군 북천면 직전리 1477-2
하동야생차박물관,35.22774486,127.6427099,경남 하동군 화개면 운수리 664
하동읍성,35.02664982,127.8316577,경남 하동군 고전면 고하리 산 151
하동축지리문암송(악양문암송),35.13804341,127.7078041,경남 하동군 악양면 축지리 산 83-1
하동편백자연휴양림,35.1869955,127.8398909,경남 하동군 옥종면 위태리 산 281-5
하동포구공원,35.03125417,127.7752612,경남 하동군 하동읍 목도리 833
하동향교,35.07058745,127.7438413,경남 하동군 하동읍 읍내리 1069
하동화개장터,35.18789076,127.6242407,경남 하동군 화개면 탑리 726-46
학방암(하동),35.0648972,127.8728689,경남 하동군 양보면 박달리 산 27
한산사(하동),35.1518787,127.6814362,경남 하동군 악양면 평사리 822-6
화개야생차밭,35.21348599,127.6430127,경남 하동군 화개면 정금리 1363
강나루생태공원,35.39117808,128.5078739,경남 함안군 칠서면 이룡리 943-1
고려동유적지,35.27621392,128.4599546,경남 함안군 산인면 모곡리 580
광심정,35.37656334,128.558474,경남 함안군 칠북면 봉촌리 230
무산사,35.32386282,128.5160137,경남 함안군 칠서면 무릉리 544
무진정(함안),35.25547024,128.4230933,경남 함안군 함안면 괴산리 547
봉성저수지,35.20642326,128.4275131,경남 함안군 여항면 주서리 594
서산서원,35.23628029,128.325025,경남 함안군 군북면 원북리 537-2
아라가야고분군,35.27046986,128.4065175,경남 함안군 가야읍 말산리 325-1
악양루,35.33521826,128.3985101,경남 함안군 대산면 서촌리 산 122
악양생태공원,35.34051395,128.3978886,경남 함안군 대산면 하기리 802-2
입곡군립공원,35.26578131,128.4503478,경남 함안군 산인면 입곡리
장춘사(함안),35.32736463,128.5584912,경남 함안군 칠북면 영동리 14
칠원향교,35.30799871,128.5136199,경남 함안군 칠원읍 용산리 299
함안대산리석조삼존상,35.25518045,128.4286412,경남 함안군 함안면 대산리 1139
함안말이산고분군,35.27046986,128.4065175,경남 함안군 가야읍 말산리 325-1
함안박물관,35.26926839,128.4038109,경남 함안군 가야읍 도항리 768-1
함안방어산마애약사여래삼존입상,35.24764405,128.3017207,경남 함안군 군북면 하림리 산 130-4
함안수박전시관,35.30131133,128.2978084,경남 함안군 군북면 월촌리 1926
함안연꽃테마파크,35.28052758,128.3949433,경남 함안군 가야읍 가야리 233-1
함안채미정,35.23539625,128.3261674,경남 함안군 군북면 원북리 353
함안향교,35.23623723,128.4178953,경남 함안군 함안면 봉성리 1319-2
함주공원,35.2818869,128.4015492,경남 함안군 가야읍 도항리 249-1
홍포서원,35.37584449,128.4726761,경남 함안군 칠서면 계내리 1366-8
구천서원(함양),35.55475135,127.7868425,경남 함양군 수동면 우명리 820-1
국립지리산자연휴양림,35.34531817,127.6417873,경남 함양군 마천면 삼정리 산 161
금대암,35.40778659,127.6707195,경남 함양군 마천면 가흥리 17-1
농월정국민관광지,35.62321584,127.7820466,경남 함양군 안의면 월림리
대봉산자연휴양림,35.57889367,127.7137272,경남 함양군 병곡면 광평리 723-9
벽송사(지리산),35.3942261,127.7034315,경남 함양군 마천면 추성리 259
보림사(함양),35.5213214,127.7225747,경남 함양군 함양읍 운림리 289
상림공원,35.52831101,127.7169571,경남 함양군 함양읍 운림리 354-1
상연대(함양),35.60791156,127.6384567,경남 함양군 백전면 백운리 78-1
서암정사(함양),35.3941943,127.6977251,경남 함양군 마천면 추성리 279-2
안국사(함양),35.40956812,127.6652395,경남 함양군 마천면 가흥리 산 1-1
안의향교,35.63745399,127.8069144,경남 함양군 안의면 교북리 148-2
영각사(함양),35.74689031,127.6792318,경남 함양군 서상면 상남리 1047
오도재와지리산조망공원,35.44173686,127.6931966,경남 함양군 마천면 구양리 산 60-2
용추사(함양),35.68782412,127.7636931,경남 함양군 안의면 상원리 963
용추자연휴양림,35.70169156,127.7547164,경남 함양군 안의면 상원리 산 12
창원산촌생태마을,35.42436405,127.6765662,경남 함양군 마천면 창원리 1132
청계서원(함양),35.54971613,127.7830746,경남 함양군 수동면 원평리 667
칠선계곡(지리산),35.33691118,127.7306219,경남 함양군 마천면 추성리 산 100
함양군자정,35.62566072,127.7385293,경남 함양군 서하면 봉전리 2006
함양대봉산휴양밸리,35.56801876,127.7152677,경남 함양군 병곡면 광평리 663
함양동호정,35.62042708,127.7517886,경남 함양군 서하면 황산리 842
함양지안재,35.47351665,127.7025172,경남 함양군 함양읍 구룡리 산 119-3
함양향교,35.53001855,127.7268093,경남 함양군 함양읍 교산리 793
함양화림동거연정일원,35.62656805,127.7375398,경남 함양군 서하면 봉전리 2006
황석산,35.65517477,127.7554689,경남 함양군 안의면 상원리 산 156-1
강양향교,35.56382253,128.161298,경남 합천군 합천읍 합천리 690-2
고불암,35.80194226,128.0515519,경남 합천군 가야면 치인리 329-5
대장경테마파크,35.76788664,128.134684,경남 합천군 가야면 야천리 943
덕원서원,35.58564202,128.3189763,경남 합천군 청덕면 성태리 596-1
매화산(합천),35.76262217,128.1024692,경남 합천군 가야면 황산리 산 114-1
백련암(합천),35.79845114,128.1061622,경남 합천군 가야면 치인리 1
삼가향교,35.40819707,128.117092,경남 합천군 삼가면 소오리 342
신소양체육공원핑크뮬리,35.58074463,128.1701958,경남 합천군 합천읍 영창리 898
악견산,35.53213652,128.0498363,경남 합천군 대병면 성리 산 43
연호사,35.5598585,128.1652598,경남 합천군 합천읍 합천리 산 1-1
오도산,35.67376922,128.0752228,경남 합천군 묘산면 반포리 680
오도산치유의숲,35.66904355,128.0538747,경남 합천군 봉산면 압곡리 산 150
옥계서원(합천),35.57568189,127.9975674,경남 합천군 봉산면 술곡리 370
옥전서원,35.58327621,128.278341,경남 합천군 쌍책면 성산리 474
용암서원(합천),35.38312555,128.1035653,경남 합천군 삼가면 외토리 616-3
원당암,35.8017162,128.0932597,경남 합천군 가야면 치인리 33
정양늪생태공원,35.54970625,128.1641182,경남 합천군 대양면 정양리 151
정양레포츠공원,35.55751827,128.1668141,경남 합천군 대양면 정양리 101-9
초계향교,35.56114343,128.2631705,경남 합천군 초계면 초계리 245
함벽루,35.55978498,128.1655003,경남 합천군 합천읍 합천리 1364-75
합천박물관,35.58008235,128.2820675,경남 합천군 쌍책면 성산리 504
합천백암리석등,35.50818494,128.2195881,경남 합천군 대양면 백암리 102
합천영상테마파크,35.54875124,128.0718461,경남 합천군 용주면 가호리 256-5
합천영암사지,35.47503831,128.0040692,경남 합천군 가회면 둔내리 1033-1
합천옥전고분군,35.58154817,128.2794829,경남 합천군 쌍책면 성산리 산 29-1
합천왕후시장,35.56831569,128.1604054,경남 합천군 합천읍 합천리 473-10
합천향교,35.70594591,128.167485,경남 합천군 야로면 구정리 311
합천호관광농원,35.53388363,128.0387495,경남 합천군 대병면 성리 502-2
해인사(합천),35.80093638,128.0975424,경남 합천군 가야면 치인리 10
해인사성보박물관,35.79387704,128.0946921,경남 합천군 가야면 치인리 산 21-1
허굴산,35.49413346,128.0492887,경남 합천군 가회면 월계리 산 89
호연정,35.57088093,128.1937816,경남 합천군 율곡면 문림리 224-1
황계폭포,35.51141318,128.0697215,경남 합천군 용주면 황계리 산 156
황매산모산재,35.47469332,127.9937005,경남 합천군 가회면 둔내리
황매산억새군락지,35.48358927,127.9776484,경남 합천군 가회면 둔내리 산 219-9
