관광지명(소재지역),위도,경도,주소
경산시립박물관,35.81405693,128.7632114,경북 경산시 사동 655-1
경산향교,35.82169108,128.7414727,경북 경산시 중방동 760
경흥사(경산),35.77219035,128.7057511,경북 경산시 남천면 산전리 806
금호서원,35.68002047,128.6698037,경북 청도군 이서면 흥선리 산 44
남매지,35.82757935,128.744558,경북 경산시 계양동 325
반곡지,35.78041876,128.8066042,경북 경산시 남산면 반곡리 246
반룡사(경산),35.77273457,128.9294032,경북 경산시 용성면 용전리 118-1
불굴사(경산),35.94521867,128.7786836,경북 경산시 와촌면 강학리 5
삼성현역사문화관,35.80163778,128.7966658,경북 경산시 남산면 인흥리 250
선본사(경산),35.98727115,128.7391257,경북 경산시 와촌면 대한리 587
안흥사(경산),35.82655361,128.7160405,경북 경산시 중산동 641
원효암(경산),35.97981531,128.7671838,경북 경산시 와촌면 대한리 382
제석사(경산),35.82180164,128.8213025,경북 경산시 자인면 북사리 226-1
천성암(경산),35.97996897,128.7756329,경북 경산시 와촌면 대동리 산 30-8
하양포교당(경산),35.91861121,128.817631,경북 경산시 하양읍 도리리 91-1
혜광사(경산),35.81760468,128.7379093,경북 경산시 삼북동 222
감포항,35.8067936,129.5055064,경북 경주시 감포읍
건천편백나무숲,35.83534335,129.0711735,경북 경주시 건천읍 송선리 산 166-1
경주골굴사,35.80235283,129.4066283,경북 경주시 문무대왕면 안동리 산 304
경주김유신묘,35.84577463,129.1910016,경북 경주시 충효동 산 7-10
경주남산,35.78868218,129.2227024,경북 경주시 배동 산 72-6
경주대릉원일원,35.84091153,129.2085737,경북 경주시 노서동 111-6
경주동궁과월지,35.83477626,129.2269755,경북 경주시 인왕동 506-1
경주동궁원,35.84950709,129.2616606,경북 경주시 북군동 185-1
경주동부사적지대,35.83518068,129.2179254,경북 경주시 황남동 104-1
경주문무대왕릉,35.73826159,129.4868767,경북 경주시 문무대왕면 봉길리 30-1
경주보리사,35.81215168,129.235578,경북 경주시 배반동 산 67
경주보문관광단지,35.84278443,129.2864572,경북 경주시 신평동 375
경주서출지,35.79640762,129.2423543,경북 경주시 남산동 974-1
경주세계문화엑스포공원,35.83086564,129.2883479,경북 경주시 천군동 130
경주솔거미술관(솔거미술관),35.82879724,129.2890851,경북 경주시 천군동 130
경주신문왕릉,35.81797187,129.2460429,경북 경주시 배반동 453-1
경주양남주상절리전망대,35.6907836,129.4745775,경북 경주시 양남면 읍천리 195-6
경주오릉,35.82319495,129.2082906,경북 경주시 탑동 74-3
경주월드,35.83625257,129.282066,경북 경주시 천군동 191-5
경주월성(반월성),35.83043616,129.2205872,경북 경주시 교동 387-1
경주읍성,35.84662622,129.2137477,경북 경주시 동부동 2-8
경주첨성대,35.83471481,129.2190002,경북 경주시 인왕동 839-1
경주향교,35.83122714,129.2169844,경북 경주시 교동 18-8
경주황룡사지,35.83839935,129.2326064,경북 경주시 구황동 786-3
관성솔밭해변,35.65943382,129.4517715,경북 경주시 양남면 수렴리 489-19
국립경주박물관,35.8292339,129.2279503,경북 경주시 인왕동 76
금관총,35.841094,129.2098226,경북 경주시 노서동 104
금장대,35.86074045,129.2010358,경북 경주시 석장동 산 38-9
기림사,35.83801097,129.4028567,경북 경주시 문무대왕면 호암리 417
나정고운모래해변,35.78228955,129.491499,경북 경주시 감포읍 나정리 1
마우나오션리조트,35.6843271,129.3691969,경북 경주시 양남면 신대리 1265
망월사(경주),35.80146734,129.2105291,경북 경주시 배동 490
백률사(경주),35.8588527,129.231408,경북 경주시 동천동 406-1
보문정(경주),35.84095853,129.2896007,경북 경주시 신평동 150-1
보문호,35.84460639,129.277538,경북 경주시 신평동 719-1
봉길대왕암해변,35.7399169,129.4839477,경북 경주시 문무대왕면 봉길리
분황사,35.84104465,129.2339233,경북 경주시 구황동 312
블루원워터파크,35.82595648,129.2896895,경북 경주시 천군동 1686
삼불사,35.80203925,129.2107883,경북 경주시 배동 산 65-2
서악서원,35.82767525,129.188728,경북 경주시 서악동 615
송대말등대,35.80722829,129.5113557,경북 경주시 감포읍 오류리 583-3
연지암(경주),35.75353281,129.3278941,경북 경주시 외동읍 활성리 378
오류고아라해변,35.82131662,129.5095207,경북 경주시 감포읍 오류리
용굴,35.79154128,129.495999,경북 경주시 감포읍 전촌리 27-3
우양미술관,35.84159385,129.2859063,경북 경주시 신평동 370
운곡서원(경주),35.94069369,129.3020794,경북 경주시 강동면 왕신리 310
월정교,35.82929955,129.2181213,경북 경주시 교동 274
전촌솔밭해변,35.78611228,129.4910301,경북 경주시 감포읍 전촌리 1236
주사암(경주),35.85331213,129.0500823,경북 경주시 서면 천촌리 1195
진평왕릉,35.83204948,129.2504851,경북 경주시 보문동 608
천룡사(경주),35.7656974,129.2238158,경북 경주시 내남면 용장리 산 132-1
천마총(대릉원),35.83815,129.2123347,경북 경주시 황남동 268-10
화랑의언덕,35.77204424,129.084331,경북 경주시 산내면 내일리 산 260-6
황리단길,35.83933482,129.2096454,경북 경주시 황남동 270-10
개경포공원,35.70991338,128.3581101,경북 고령군 개진면 오사리
고령고아리벽화고분,35.71609515,128.2710396,경북 고령군 대가야읍 고아리 산 13-1
고령대가야유적지,35.72501899,128.2540245,경북 고령군 대가야읍 지산리 산 23-1
고령지산동고분군,35.72627226,128.2531025,경북 고령군 대가야읍 지산리 산 23-1
고령향교,35.72911406,128.2650438,경북 고령군 대가야읍 연조리 608
관음사(고령),35.73285986,128.2663764,경북 고령군 대가야읍 연조리 206
다산딸기조합농원,35.84483436,128.4166537,경북 고령군 다산면 노곡리 101-16
다산문화공원,35.81376047,128.4730736,경북 고령군 다산면 호촌리 1102
대가야생활촌,35.71190452,128.2692493,경북 고령군 대가야읍 고아리 658
대가야수목원,35.72824569,128.2860869,경북 고령군 대가야읍 장기리 5-8
대가야역사테마관광지,35.71895826,128.2610198,경북 고령군 대가야읍 지산리 471-1
도암서원(고령),35.71617349,128.2466676,경북 고령군 쌍림면 고곡리 25
매림서원,35.68440066,128.2241645,경북 고령군 쌍림면 송림리 98
미천공원,35.80185947,128.1948697,경북 고령군 덕곡면 노리 481
반룡사(고령),35.73183771,128.2159019,경북 고령군 쌍림면 용리 187
우륵박물관,35.74234623,128.2637763,경북 고령군 대가야읍 쾌빈리 162
중화유원지(중화지),35.7438486,128.2523952,경북 고령군 대가야읍 중화리 82
구미과학관,36.10223538,128.4003564,경북 구미시 진평동 704
구미성리학역사관,36.1146765,128.3135656,경북 구미시 남통동 산 28-7
구미에코랜드,36.17716945,128.4624735,경북 구미시 산동읍 인덕리 280
구미채미정,36.11259407,128.3128978,경북 구미시 남통동 249
금오랜드놀이동산,36.11293149,128.3163107,경북 구미시 남통동 253
금오산도립공원,36.09320569,128.3075633,경북 구미시 남통동 산 33
금오산케이블카,36.10840955,128.3070934,경북 구미시 남통동 산 24-12
금오서원,36.22764664,128.3386688,경북 구미시 선산읍 원리 276
낙봉서원,36.20119491,128.3847638,경북 구미시 해평면 낙성리 474
대둔사(구미),36.33604273,128.2419631,경북 구미시 옥성면 옥관리 1090
도리사(구미),36.2555404,128.3984817,경북 구미시 해평면 송곡리 403
도선굴,36.10475853,128.297605,경북 구미시 남통동 산 94
동락공원,36.09360748,128.4027037,경북 구미시 진평동 766
동락서원,36.11150512,128.3992194,경북 구미시 임수동 373
들성생태공원,36.15828248,128.3417822,경북 구미시 고아읍 문성리 642
매학정일원,36.19556832,128.3624653,경북 구미시 고아읍 예강리 257-2
박정희대통령생가,36.08854967,128.3486018,경북 구미시 상모동 171
박정희대통령역사자료관,36.09056308,128.3488994,경북 구미시 상모동 156-1
보천사(구미),36.20375221,128.3739838,경북 구미시 해평면 해평리 525-1
새마을운동테마공원,36.0926716,128.3497126,경북 구미시 상모동 552
선산향교,36.25262276,128.3013833,경북 구미시 선산읍 교리 838
수다사(구미),36.28355585,128.1660823,경북 구미시 무을면 상송리 12
야은역사체험관,36.1102235,128.3126207,경북 구미시 남통동 산 144-3
옥성자연휴양림,36.28096417,128.2824346,경북 구미시 옥성면 주아리 산 127-4
원각사(구미),36.24497494,128.2931545,경북 구미시 선산읍 노상리 159-1
지산샛강생태공원,36.13456712,128.3527716,경북 구미시 지산동 847-72
천생산,36.10896385,128.4572699,경북 구미시 신동 산 16-2
해마루공원,36.14282379,128.4361495,경북 구미시 옥계동 941
해운사(구미),36.10535809,128.2984921,경북 구미시 남통동 산 94-1
현암서원,36.11316836,128.4217403,경북 구미시 황상동 416-5
계림사(김천),36.17270986,128.1815273,경북 김천시 개령면 동부리 434
국립김천치유의숲,35.85137174,128.0022248,경북 김천시 증산면 수도리 산 9-2
김천강변공원,36.12871331,128.0905611,경북 김천시 교동 703
김천물소리생태숲,36.0375461,127.9181408,경북 김천시 부항면 파천리 816-2
김천세계도자기박물관,36.11681123,128.0112008,경북 김천시 대항면 운수리 1137-3
김천연화지,36.13729255,128.0928173,경북 김천시 교동 820-2
김천조각공원,36.13013027,128.1167347,경북 김천시 신음동 1258-6
김천친환경생태공원,36.11867484,128.0113091,경북 김천시 대항면 운수리 83
김천황금시장,36.1173009,128.1248698,경북 김천시 황금동 22-6
녹색미래과학관,36.12450974,128.1851021,경북 김천시 율곡동 922
수도암(김천),35.86152216,127.9973429,경북 김천시 증산면 수도리 513-6
용화사(김천),36.14798738,128.0386633,경북 김천시 봉산면 덕천리 502-2
증산수도계곡캠핑장,35.89962863,128.0243498,경북 김천시 증산면 평촌리 185
직지문화공원,36.11602368,128.0139629,경북 김천시 대항면 운수리 1149-1
직지사,36.11647995,128.0038727,경북 김천시 대항면 운수리 216
청암사(김천),35.89125687,128.0027294,경북 김천시 증산면 평촌리 688
고모산성,36.66200981,128.1275558,경북 문경시 마성면 신현리 산 30-3
근암서원,36.63681798,128.2480332,경북 문경시 산북면 서중리 145-7
김룡사(문경),36.73938419,128.2232713,경북 문경시 산북면 김용리 410
대승사(문경),36.74991947,128.2720712,경북 문경시 산북면 전두리 8
대야산,36.66919702,127.9295197,경북 문경시 가은읍 완장리 산 75-1
문경단산모노레일,36.73679412,128.1584855,경북 문경시 문경읍 고요리 산 89-4
문경새재미로공원,36.7644583,128.0748174,경북 문경시 문경읍 상초리 220
문경오미자테마공원,36.74324565,128.0825213,경북 문경시 문경읍 진안리 347
문경오미자테마터널,36.66060167,128.1287656,경북 문경시 마성면 신현리 산 35-6
문경종합온천,36.72999602,128.1091605,경북 문경시 문경읍 하리 394
문경중앙시장,36.59350797,128.1973248,경북 문경시 점촌동 197-14
불정자연휴양림,36.62187091,128.135811,경북 문경시 불정동 339-8
옛길박물관,36.76305624,128.0764105,경북 문경시 문경읍 상초리 244
운강이강년기념관,36.67191322,127.99613,경북 문경시 가은읍 완장리 96
운달산,36.75633859,128.1986583,경북 문경시 문경읍 용연리 산 57
운암사(문경),36.61581721,128.1393215,경북 문경시 불정동 342
주흘산,36.78856688,128.1012671,경북 문경시 문경읍 상초리 산 42-58
진남교반,36.65976462,128.1296145,경북 문경시 마성면 신현리 산 37-1
혜국사,36.77681984,128.0868454,경북 문경시 문경읍 상초리 13
황장산,36.8127916,128.278092,경북 문경시 동로면 생달리 산 8-1
국립백두대간수목원,37.00815987,128.829795,경북 봉화군 춘양면 서벽리 485
백두대간협곡열차(V-트레인),36.93253879,129.0584715,경북 봉화군 소천면 분천리 964
봉화산사,36.93069894,128.9091145,경북 봉화군 춘양면 의양리 463-1
청량사(봉화),36.78918829,128.9188057,경북 봉화군 명호면 북곡리 247
축서사(봉화),36.98123291,128.7999312,경북 봉화군 물야면 개단리 1
현불사,37.06528236,128.9774728,경북 봉화군 석포면 대현리 280-1
갑장산,36.34738069,128.1889823,경북 상주시 낙동면 비룡리 산 37-1
견훤산성,36.57542537,127.8998002,경북 상주시 화북면 장암리 산 42
경천섬(경천섬공원),36.43992435,128.2597119,경북 상주시 중동면 오상리
광덕사(상주),36.33360249,128.0974219,경북 상주시 외남면 구서리 산 2
나각산,36.38025548,128.3047283,경북 상주시 낙동면 구잠리 산 5
낙동강역사이야기관,36.36639307,128.308744,경북 상주시 낙동면 낙동리 210-7
낙암서원,36.41031961,128.270752,경북 상주시 중동면 죽암리 292-2
노음산,36.43893921,128.0966829,경북 상주시 남장동 산 63-1
도남서원,36.4400857,128.2543167,경북 상주시 도남동 175
문장대,36.56778608,127.8621942,경북 상주시 화북면 장암리 산 33
봉강서원(상주),36.40232389,128.1570418,경북 상주시 신봉동 230-6
봉산서원(상주),36.42328231,127.9253466,경북 상주시 화서면 금산리 584-3
북장사(상주),36.43796793,128.0801649,경북 상주시 내서면 북장리 38-1
상락사(상주),36.41828139,128.1603312,경북 상주시 서성동 60-8
상주곶감공원,36.37568059,128.1028245,경북 상주시 외남면 소은리 469
상주국제승마장,36.45924397,128.230694,경북 상주시 사벌국면 화달리 산 6-5
상주동학교당,36.53990377,128.0602657,경북 상주시 은척면 우기리 730
상주박물관,36.45999661,128.2411138,경북 상주시 사벌국면 삼덕리 361
상주양진당,36.3641327,128.2290351,경북 상주시 낙동면 승곡리 214-3
상주용화사,36.56807811,128.1716859,경북 상주시 함창읍 증촌리 258-3
상주임란북천전적지,36.42642486,128.1512933,경북 상주시 만산동 701-1
상주자전거박물관,36.45321947,128.2550681,경북 상주시 도남동 산 3-4
상주향교,36.40651578,128.157425,경북 상주시 신봉동 203-1
성주봉자연휴양림,36.5352331,128.0417864,경북 상주시 은척면 남곡리 산 50
신흥사(상주),36.60264559,127.8329471,경북 상주시 화북면 중벌리 526
연수암(상주),36.43787307,128.1162357,경북 상주시 연원동 195-3
옥동서원,36.29001307,127.9416028,경북 상주시 모동면 수봉리 546
옥성서원,36.35038986,128.1006362,경북 상주시 외남면 신상리 129
용흥사(상주),36.35142695,128.1668398,경북 상주시 지천동 722
전고령가야왕릉,36.56542681,128.1748272,경북 상주시 함창읍 증촌리 7
전사벌왕릉,36.44481641,128.2239448,경북 상주시 사벌국면 화달리 산 45
존애원,36.35318316,128.115042,경북 상주시 청리면 율리 353
청계사(상주),36.48916622,127.9591739,경북 상주시 화서면 하송리 310-2
청룡사(상주),36.43748228,128.2650031,경북 상주시 중동면 회상리 산 200-6
청암서원,36.5391886,128.1231254,경북 상주시 공검면 예주리 산 19-1
태평성대경상감영공원,36.42022746,128.1796759,경북 상주시 복룡동 165-9
함창향교,36.57624314,128.15588,경북 상주시 함창읍 교촌리 304-1
황령사(상주),36.53859273,128.0183856,경북 상주시 은척면 황령리 35
효자정재수기념관,36.41643795,127.9229329,경북 상주시 화서면 사산리 63
흥암서원,36.4179904,128.1368117,경북 상주시 연원동 769
감응사(경북),35.93460538,128.3324731,경북 성주군 월항면 대산리 56
독용산성,35.89627124,128.1278789,경북 성주군 가천면 금봉리 산 42-1
선석사(경북),36.0156493,128.2991003,경북 성주군 월항면 인촌리 217
성주역사테마공원,35.92178599,128.2831144,경북 성주군 성주읍 예산리 516
성주향교,35.92706801,128.2902388,경북 성주군 성주읍 예산리 131
심원사(성주),35.80060025,128.1358615,경북 성주군 수륜면 백운리 1840-3
임정사(경북),35.92151507,128.2856948,경북 성주군 성주읍 경산리 105
자비선사,35.7942894,128.2205252,경북 성주군 수륜면 계정리 1414-2
개목사(안동),36.65804346,128.6679799,경북 안동시 서후면 태장리 888
경상북도독립운동기념관,36.53323158,128.8581476,경북 안동시 임하면 천전리 240
경상북도산림과학박물관,36.71400487,128.8249092,경북 안동시 도산면 동부리 108-3
관광커뮤니티센터여기,36.56068359,128.7318488,경북 안동시 운흥동 300-15
광흥사(안동),36.64599685,128.6139593,경북 안동시 서후면 재품리 813
권정생동화나라,36.46130081,128.6650937,경북 안동시 일직면 망호리 819
낙강물길공원,36.58785968,128.7709445,경북 안동시 상아동 423
모운사(안동),36.53464338,128.6507655,경북 안동시 남후면 검암리 596
묵계서원,36.41563337,128.917653,경북 안동시 길안면 묵계리 735-1
봉서사(안동),36.7042728,128.6985121,경북 안동시 북후면 옹천리 762
서악사(안동),36.56184448,128.7094782,경북 안동시 태화동 605-1
선찰사(안동),36.45417329,128.8974904,경북 안동시 길안면 천지리 574-3
안동계명산자연휴양림,36.41012205,128.9465321,경북 안동시 길안면 고란리 108
안동소주·전통음식박물관,36.54980313,128.7087841,경북 안동시 수상동 280
안동시립민속박물관,36.57951512,128.7665276,경북 안동시 성곡동 784-1
안동임청각,36.5651052,128.744681,경북 안동시 법흥동 20-3
안동태사묘,36.56703247,128.7316465,경북 안동시 북문동 23
안동학가산온천,36.58904369,128.648223,경북 안동시 서후면 명리 423
안동호반자연휴양림,36.70360507,128.8284061,경북 안동시 도산면 동부리 36
영호루,36.55268806,128.7219453,경북 안동시 정하동 338-1
용담사(안동),36.38975684,128.9247689,경북 안동시 길안면 금곡리 83
유교랜드,36.56953643,128.7783339,경북 안동시 성곡동 1559
유교문화박물관,36.70244819,128.8106077,경북 안동시 도산면 서부리 220
유하사(안동),36.61922546,128.7921791,경북 안동시 와룡면 가구리 79
이육사문학관,36.73898995,128.8630643,경북 안동시 도산면 원천리 900
전통리조트구름에,36.57337143,128.7688105,경북 안동시 성곡동 724
제비원연미사,36.60629143,128.7056979,경북 안동시 이천동 708-4
지례예술촌,36.51000165,128.9510032,경북 안동시 임동면 박곡리 1182-1
체화정,36.57900215,128.5782254,경북 안동시 풍산읍 상리리 447
퇴계종택,36.73678096,128.8484941,경북 안동시 도산면 토계리 468-2
퇴계태실,36.74982925,128.8283091,경북 안동시 도산면 온혜리 604
하회세계탈박물관,36.548963,128.5277306,경북 안동시 풍천면 하회리 287
강구항,36.35871052,129.3913128,경북 영덕군 강구면 강구리 253-51
경정항,36.48290481,129.4339681,경북 영덕군 축산면 경정리
경정해수욕장,36.4819702,129.4333231,경북 영덕군 축산면 경정리 330
고래불해수욕장,36.59866932,129.4107192,경북 영덕군 병곡면 병곡리 58-26
국립칠보산자연휴양림,36.6242586,129.3672558,경북 영덕군 병곡면 영리 산 214
남호해수욕장,36.32710977,129.3802631,경북 영덕군 남정면 남호리 18-4
대진항(영덕),36.55815458,129.4333572,경북 영덕군 영해면 대진리
대진해수욕장(영덕),36.56497534,129.4268658,경북 영덕군 영해면 대진리 426-3
덕천해수욕장,36.57111216,129.4196103,경북 영덕군 병곡면 덕천리 1-58
산성계곡생태공원,36.35015241,129.2763734,경북 영덕군 달산면 옥산리 515
삼사해상공원(삼사해상산책로),36.33869308,129.3827583,경북 영덕군 강구면 삼사리
영덕대소산봉수대,36.51833959,129.432386,경북 영덕군 축산면 도곡리 산 20-1
영덕어촌민속전시관,36.35038692,129.3865718,경북 영덕군 강구면 삼사리 158-10
영덕조각공원,36.41959376,129.4191436,경북 영덕군 영덕읍 창포리 26-5
영덕해맞이공원,36.42737394,129.4352783,경북 영덕군 영덕읍 창포리 산 5-5
영덕향교,36.41660433,129.3659867,경북 영덕군 영덕읍 화개리 160
영리해수욕장,36.59253793,129.4099071,경북 영덕군 병곡면 영리 155-6
영해향교,36.53836953,129.4137349,경북 영덕군 영해면 성내리 24-1
오보해수욕장,36.44087765,129.4327746,경북 영덕군 영덕읍 오보리 26
오천솔밭유원지,36.42562746,129.3279548,경북 영덕군 지품면 오천리
오포해수욕장,36.35649815,129.3885941,경북 영덕군 강구면 오포리
옥계계곡,36.33293683,129.2704961,경북 영덕군 달산면 옥계리
유금사(영덕),36.64584055,129.3658235,경북 영덕군 병곡면 금곡리 838
인문힐링센터여명,36.59725557,129.2991266,경북 영덕군 창수면 갈천리 122
장사해수욕장,36.28191774,129.3761075,경북 영덕군 남정면 장사리 74-6
장육사,36.59875688,129.3011612,경북 영덕군 창수면 갈천리 120
죽도산전망대,36.50719221,129.451098,경북 영덕군 축산면 축산리 산 106-2
축산항,36.5086105,129.448192,경북 영덕군 축산면
하저해수욕장,36.38940615,129.4078712,경북 영덕군 강구면 하저리 474-2
국립검마산자연휴양림,36.74457179,129.23527,경북 영양군 수비면 신원리 산 26
반딧불이천문대,36.83041579,129.2694511,경북 영양군 수비면 수하리 255-1
선바위관광지,36.60878372,129.0810863,경북 영양군 입암면 신구리 95
영양고추홍보전시관,36.60791658,129.0820375,경북 영양군 입암면 신구리 95-7
영양국제밤하늘보호공원,36.83776343,129.2711567,경북 영양군 수비면 수하리 240
일월산,36.80362257,129.0985662,경북 영양군 일월면 용화리 산 77-29
죽파리자작나무숲,36.74254946,129.2646436,경북 영양군 수비면 죽파리 산 39-1
구성공원,36.82277704,128.6205788,경북 영주시 영주동 439-2
국립산림치유원,36.8578007,128.4725712,경북 영주시 봉현면 두산리 1330
백산서원(영주),36.89199313,128.5954021,경북 영주시 단산면 사천리 463-7
비로사(영주),36.93904587,128.4988687,경북 영주시 풍기읍 삼가리 391
선비촌,36.92753115,128.5826788,경북 영주시 순흥면 청구리 357
성혈사(영주),36.95051618,128.543276,경북 영주시 순흥면 덕현리 277
소백산꽃차이야기,36.88319462,128.5641144,경북 영주시 안정면 단촌리 176-1
순흥향교,36.93047908,128.5769318,경북 영주시 순흥면 청구리 437
영주금성대군신단,36.92728983,128.5785382,경북 영주시 순흥면 내죽리 72
영주순흥벽화고분,36.91496805,128.5654476,경북 영주시 순흥면 읍내리 산 29-1
영주포교당,36.82327596,128.6212573,경북 영주시 영주동 411-2
유석사(영주),36.901824,128.4760141,경북 영주시 풍기읍 창락리 280-18
이산서원,36.83595235,128.6960789,경북 영주시 이산면 석포리 768-2
장수조이월드,36.76509674,128.5619361,경북 영주시 장수면 화기리 683
죽계구곡,36.94349245,128.5265123,경북 영주시 순흥면 배점리
진월사(영주),36.71179413,128.6517415,경북 영주시 평은면 용혈리 1104
초암사(영주),36.94458327,128.5260446,경북 영주시 순흥면 배점리 525-3
풍기인삼박물관,36.88587482,128.4798066,경북 영주시 풍기읍 창락리 452
풍기인삼시장,36.87299893,128.5236098,경북 영주시 풍기읍 서부리 145-3
흑석사(영주),36.82294914,128.671656,경북 영주시 이산면 석포리 1379
희방사(영주),36.91959684,128.4571575,경북 영주시 풍기읍 수철리 313-3
거동사,36.1502858,129.0267547,경북 영천시 자양면 보현리 1683
거조사,36.02011058,128.7645616,경북 영천시 청통면 신원리 622
도계서원(영천),35.88910742,129.0230295,경북 영천시 북안면 도천리 산 4
만불사(영천),35.90892792,129.0321735,경북 영천시 북안면 고지리 21-2
묘각사(영천),36.11481353,129.0088996,경북 영천시 자양면 용화리 9
봉림사(영천),36.12591849,128.8978464,경북 영천시 화북면 자천리 2372
부귀사(영천),36.02561303,128.7479296,경북 영천시 신녕면 왕산리 1050
수도사(영천),36.03964195,128.7179683,경북 영천시 신녕면 치산리 312
시안미술관,36.03283001,128.8892289,경북 영천시 화산면 가상리 649
영지사,35.84436094,128.9512883,경북 영천시 대창면 용호리 14
영천돌할매공원,35.93970656,129.0458544,경북 영천시 북안면 관리 221
영천목재문화체험장,36.1410717,128.9786037,경북 영천시 화북면 입석리 산 49
영천보현산천문과학관,36.14029161,128.9967177,경북 영천시 화북면 정각리 689
영천신흥사,35.93729997,128.8986441,경북 영천시 금호읍 신월리 205-2
영천자천리오리장림,36.10066127,128.9118093,경북 영천시 화북면 자천리 2212
영천전투메모리얼파크,35.97186424,128.9265913,경북 영천시 교촌동 11-69
영천전투호국기념관,35.98056515,129.10762,경북 영천시 고경면 청정리 551
영천조양각,35.96698123,128.9329803,경북 영천시 창구동 1-1
영천포교당,35.96610896,128.9262597,경북 영천시 교촌동 237
운주산승마자연휴양림,36.03526154,128.9967114,경북 영천시 임고면 황강리 산 9
은해사(영천),35.99176523,128.7897009,경북 영천시 청통면 치일리 479
임고강변공원,36.04652977,128.9920786,경북 영천시 임고면 덕연리 132-8
임고서원,36.0166451,128.973234,경북 영천시 임고면 양항리 493
죽림사(영천),35.94605945,128.9173996,경북 영천시 금호읍 봉죽리 67
최무선과학관,35.90772568,128.8810481,경북 영천시 금호읍 원기리 277
치산계곡,36.04661759,128.7136105,경북 영천시 신녕면 치산리 125-8
한광사,36.08396732,128.7669559,경북 영천시 신녕면 화남리 500
명봉사(예천),36.77761289,128.3761253,경북 예천군 효자면 명봉리 501
보문사(예천),36.65474809,128.5603859,경북 예천군 보문면 수계리 158
서악사(예천),36.65808317,128.4350572,경북 예천군 예천읍 대심리 산 13-2
선몽대,36.59797342,128.4607358,경북 예천군 호명읍 백송리 74
소백산하늘자락공원,36.74485383,128.3853469,경북 예천군 용문면 내지리 산 74-1
예천목재문화체험장,36.79942007,128.3761076,경북 예천군 효자면 용두리 785
예천삼강문화단지,36.56371663,128.2989214,경북 예천군 풍양면 삼강리 151
예천천문우주센터,36.70131865,128.504848,경북 예천군 감천면 덕율리 93
예천천향리석송령,36.72701994,128.4919575,경북 예천군 감천면 천향리 804
예천초간정,36.7013469,128.3818409,경북 예천군 용문면 죽림리 350
용문사(예천),36.73110707,128.3696574,경북 예천군 용문면 내지리 391
장안사(예천),36.57964716,128.314833,경북 예천군 용궁면 향석리 산 54-1
회룡포,36.57560352,128.3213156,경북 예천군 용궁면 대은리 387-2
나리분지,37.52104107,130.8673169,경북 울릉군 북면 나리 201
내수전몽돌해변,37.50705448,130.9136291,경북 울릉군 울릉읍 저동리 10-5
내수전일출전망대,37.51229392,130.9097568,경북 울릉군 울릉읍 저동리 641
도동항,37.4815258,130.908815,경북 울릉군 울릉읍 도동리
독도,37.2410536,131.8671311,경북 울릉군 울릉읍 독도리
독도전망대케이블카,37.48300943,130.9002279,경북 울릉군 울릉읍 도동리 581-1
울릉대아리조트,37.47657356,130.8917557,경북 울릉군 울릉읍 사동리 302-1
울릉예림원,37.52999925,130.8355464,경북 울릉군 북면 현포리 318
저동항,37.49621544,130.9099705,경북 울릉군 울릉읍 저동리
태하향목관광모노레일,37.51318845,130.7976107,경북 울릉군 서면 태하리
행남해안산책로,37.4913164,130.9131908,경북 울릉군 울릉읍 도동리 산 4
구수곡자연휴양림,37.06301264,129.2907715,경북 울진군 북면 상당리 325
국립통고산자연휴양림,36.92678901,129.1918579,경북 울진군 금강송면 쌍전리 산 150-1
금강송에코리움,36.97465468,129.2115418,경북 울진군 금강송면 소광리 293
덕구온천스파월드,37.07880885,129.2835652,경북 울진군 북면 덕구리 575-26
등기산스카이워크,36.68024188,129.4648572,경북 울진군 후포면 후포리 산 141-1
망양정,36.96718583,129.4125243,경북 울진군 근남면 산포리 716-1
민물고기생태체험관,36.96635096,129.3799897,경북 울진군 근남면 행곡리 228
백암온천관광특구,36.72021093,129.3420378,경북 울진군 온정면 소태리 산 47-1
불영사(울진),36.94095734,129.2736797,경북 울진군 금강송면 하원리 122
왕피천케이블카,36.97091434,129.406632,경북 울진군 근남면 수산리 346
울진과학체험관,36.99638338,129.4088601,경북 울진군 울진읍 연지리 800
울진국립해양과학관,37.07242398,129.4090284,경북 울진군 죽변면 후정리 53-30
울진오산항,36.89197657,129.4166547,경북 울진군 매화면 오산리 226-14
울진왕피천공원,36.96869339,129.4010888,경북 울진군 근남면 수산리 346
울진하트해변,37.05935625,129.4281475,경북 울진군 죽변면 죽변리 120-36
월송정,36.74382472,129.4687619,경북 울진군 평해읍 월송리 362-2
이현세만화거리,36.91281954,129.3809632,경북 울진군 매화면 매화리 1138-19
죽변해안스카이레일,37.0558744,129.4284141,경북 울진군 죽변면 죽변리 3-25
한화리조트백암온천,36.72077852,129.3439128,경북 울진군 온정면 소태리 1453-1
경덕왕릉의성조문국사적지,36.27459217,128.6754788,경북 의성군 금성면 대리리 324
고운사(의성),36.45827107,128.7506141,경북 의성군 단촌면 구계리 116
금봉자연휴양림,36.33601726,128.8807881,경북 의성군 옥산면 금봉리 55
대곡사(의성),36.49002945,128.3777157,경북 의성군 다인면 봉정리 894
비안향교,36.37028516,128.4719946,경북 의성군 안계면 교촌리 285
빙계서원,36.22692777,128.7539925,경북 의성군 춘산면 빙계리 산 73-1
수정사(의성),36.26665671,128.7325511,경북 의성군 금성면 수정리 1
옥련사(의성),36.41887434,128.5509278,경북 의성군 안평면 삼춘리 1011
운람사(의성),36.3609484,128.6060445,경북 의성군 안평면 신안리 806
의성만취당,36.42423544,128.762348,경북 의성군 점곡면 사촌리 207
의성사촌리가로숲,36.42497803,128.75904,경북 의성군 점곡면 사촌리 356
의성산운생태공원,36.24329639,128.7030069,경북 의성군 금성면 산운리 236
의성조문국박물관,36.27667186,128.669229,경북 의성군 금성면 초전리 223-5
의성탑리리오층석탑,36.25519851,128.6838669,경북 의성군 금성면 탑리리 1383-1
의성탑산약수온천,36.3034975,128.5889883,경북 의성군 봉양면 구산리 1635
의성향교,36.34901162,128.7013616,경북 의성군 의성읍 도동리 810
국립운문산자연휴양림,35.6520457,129.0252595,경북 청도군 운문면 신원리 산 29-6
대비사(청도),35.65634003,128.9361162,경북 청도군 금천면 박곡리 794
대산사(청도),35.59955286,128.6100165,경북 청도군 각남면 옥산리 1143
대운암(청도),35.59102984,128.7824453,경북 청도군 청도읍 유호리 1-1
대적사(청도),35.71596734,128.7197211,경북 청도군 화양읍 송금리 223
덕사(청도),35.65437075,128.7428635,경북 청도군 화양읍 소라리 1
보현사(청도),35.64103353,128.7402588,경북 청도군 청도읍 고수리 611-1
사리암,35.65160147,128.9818883,경북 청도군 운문면 신원리 산 169-1
신둔사(청도),35.62440089,128.7117754,경북 청도군 화양읍 동천리 657
용천사(청도),35.71882759,128.555808,경북 청도군 각북면 오산리 1062
운문사,35.66125256,128.9603038,경북 청도군 운문면 신원리 1789
유호연화,35.67523668,128.6930594,경북 청도군 화양읍 유등리 783-3
적천사(청도),35.61289899,128.7377951,경북 청도군 청도읍 원리 981
청도석빙고,35.64933753,128.7083637,경북 청도군 화양읍 동천리 285
청도용암웰빙스파,35.68883477,128.7190201,경북 청도군 화양읍 삼신리 929
청도읍성,35.65059765,128.7066902,경북 청도군 화양읍 동상리 45-2
청도프로방스,35.68398097,128.7187823,경북 청도군 화양읍 삼신리 879
객주문학관,36.52349504,129.0397279,경북 청송군 진보면 진안리 353
군립청송야송미술관,36.50585204,129.119184,경북 청송군 진보면 신촌리 46-3
대전사,36.39707784,129.1459858,경북 청송군 주왕산면 상의리 200
보광사(청송),36.41753562,129.0443012,경북 청송군 청송읍 덕리 429
주왕산관광단지,36.3781843,129.1074807,경북 청송군 주왕산면 하의리 842
중평솔밭,36.45583599,129.0330778,경북 청송군 파천면 중평리 37-4
청송백자전수관,36.34153429,129.1554099,경북 청송군 주왕산면 신점리 86
청송솔기온천,36.43594895,129.0629105,경북 청송군 청송읍 월막리 69-2
청송송소고택,36.43623923,129.0264056,경북 청송군 파천면 덕천리 176
청송얼음골(청송국가지질공원),36.31700006,129.2244391,경북 청송군 주왕산면 내룡리 733
항일의병기념공원,36.36777036,129.0727973,경북 청송군 주왕산면 상평리 313-1
가산수피아,36.08610902,128.4850445,경북 칠곡군 가산면 학하리 1206-5
관호산성,36.0121036,128.3941327,경북 칠곡군 약목면 관호리 458-48
국립칠곡숲체원,36.06371092,128.4662794,경북 칠곡군 석적읍 성곡리 73-13
금곡사(칠곡),36.06611359,128.5580995,경북 칠곡군 가산면 금화리 274
꿀벌나라테마공원,36.01687752,128.4051272,경북 칠곡군 석적읍 중지리 산 35
다부동전적기념관,36.0464373,128.5188749,경북 칠곡군 가산면 다부리 329
대둔사(칠곡),36.05900711,128.5789122,경북 칠곡군 가산면 가산리 242
도덕암(칠곡),35.98612154,128.5991116,경북 칠곡군 동명면 구덕리 20-4
도봉사,36.06611958,128.4834921,경북 칠곡군 석적읍 성곡리 901
동명지수변공원,35.98074122,128.5687878,경북 칠곡군 동명면 구덕리 135-3
송림사(칠곡),35.98242067,128.5775344,경북 칠곡군 동명면 구덕리 91-6
수림사,36.01643004,128.5953169,경북 칠곡군 동명면 남원리 62
영명사(칠곡),36.0635515,128.3018581,경북 칠곡군 북삼읍 숭오리 919
칠곡보생태공원,36.01903869,128.4015671,경북 칠곡군 석적읍 중지리
칠곡송정자연휴양림,36.02351919,128.4455887,경북 칠곡군 석적읍 반계리 산 9-1
칠곡양떼목장,35.98454501,128.4887401,경북 칠곡군 지천면 창평리 산 60-3
칠곡호국평화기념관,36.01804359,128.4040519,경북 칠곡군 석적읍 중지리 산 33
평화분수,35.99900189,128.3959836,경북 칠곡군 왜관읍 왜관리 1350-29
고석사(포항),35.91546579,129.4635908,경북 포항시 남구 장기면 방산리 890
구룡포근대문화역사관,35.99052889,129.5615808,경북 포항시 남구 구룡포읍 구룡포리 243
구룡포일본인가옥거리,35.99055822,129.5604189,경북 포항시 남구 구룡포읍 구룡포리 971-1
구룡포해수욕장,35.99712509,129.5660739,경북 포항시 남구 구룡포읍 구룡포리 9-16
도구해수욕장,35.99224784,129.4429571,경북 포항시 남구 동해면 도구리 729-13
삼정해수욕장,36.00421472,129.5722514,경북 포항시 남구 구룡포읍 삼정리 961-16
선암사(포항),35.96712629,129.4862047,경북 포항시 남구 동해면 공당리 791
송도해변(포항),36.03418684,129.3809841,경북 포항시 남구 송도동 378-438
양포항,35.88107691,129.5200189,경북 포항시 남구 장기면 양포리 9-32
연오랑세오녀테마공원귀비고,36.00255854,129.4597057,경북 포항시 남구 동해면 임곡리 123
오어사(포항),35.92626555,129.3687964,경북 포항시 남구 오천읍 항사리 34
일출선원(포항),35.97555431,129.4902278,경북 포항시 남구 동해면 중산리 330-1
장길리복합낚시공원,35.95212301,129.5474892,경북 포항시 남구 구룡포읍 장길리 175
포항남부종합시장,36.01259593,129.3561586,경북 포항시 남구 상도동 629
포항장기읍성,35.89605518,129.4889089,경북 포항시 남구 장기면 읍내리 127-2
포항함체험관,36.04142332,129.3726377,경북 포항시 남구 송도동 386-2
해봉사(포항),36.0313699,129.5535196,경북 포항시 남구 호미곶면 강사리 1066
흥환간이해수욕장,36.02351856,129.4996062,경북 포항시 남구 동해면 흥환리
경상북도수목원,36.21931233,129.2569947,경북 포항시 북구 죽장면 상옥리 1-23
곤륜산활공장,36.13501735,129.3917431,경북 포항시 북구 흥해읍 칠포리 산 86
기청산식물원,36.19575697,129.3334437,경북 포항시 북구 청하면 덕성리 396-1
법광사(포항),36.14653514,129.2427314,경북 포항시 북구 신광면 상읍리 875
보경사,36.2522465,129.3177702,경북 포항시 북구 송라면 중산리 622
사방기념공원,36.16482202,129.3958588,경북 포항시 북구 흥해읍 오도리 502
영일대북부시장,36.04663611,129.36892,경북 포항시 북구 대신동 63-16
영일대해수욕장,36.05506957,129.378187,경북 포항시 북구 두호동 685-1
영일만친구야시장,36.03892445,129.3648195,경북 포항시 북구 신흥동 1018-2
영일만항,36.11047085,129.4352987,경북 포항시 북구 흥해읍 용한리 853
영일민속박물관,36.11082834,129.3471966,경북 포항시 북구 흥해읍 성내리 39-8
오도1리해수욕장,36.15493557,129.3988785,경북 포항시 북구 흥해읍 오도리
용한1리해수욕장,36.11213901,129.4299983,경북 포항시 북구 흥해읍 용한리
월포해수욕장,36.20164822,129.3712545,경북 포항시 북구 청하면 월포리 92-111
이가리닻전망대,36.18786603,129.379109,경북 포항시 북구 청하면 이가리 산 67-3
임허사(포항),36.10968715,129.3436362,경북 포항시 북구 흥해읍 옥성리 131
조사리간이해수욕장,36.22643559,129.3815928,경북 포항시 북구 송라면 조사리
죽림사(포항),36.03648733,129.3579576,경북 포항시 북구 용흥동 88-7
칠포해수욕장,36.13200374,129.399615,경북 포항시 북구 흥해읍 칠포리 112
칠포해오름전망대,36.14704044,129.3971216,경북 포항시 북구 흥해읍 칠포리 922
포항시립미술관,36.06651323,129.3911647,경북 포항시 북구 환호동 352
포항여객선터미널,36.05153298,129.3788339,경북 포항시 북구 항구동 58-54
포항죽도시장,36.03635459,129.36839,경북 포항시 북구 죽도동 2-4
하옥계곡,36.31278113,129.2594244,경북 포항시 북구 죽장면 하옥리
화진해수욕장,36.25140104,129.3739012,경북 포항시 북구 송라면 화진리
환호공원,36.06652022,129.3902727,경북 포항시 북구 환호동 산 56-1
